name,street,model,bedrooms,bathrooms,district,region,planning_area,subszone,lat,lng,tenure,built_year,no_of_units,area_size,price
seascape,57 cove way ,condominium,3.0,4.0,4,central region,southern islands,sentosa,1.2393366271489,103.83748719432,0,2011.0,151.0,2336.0,5390000.0
la maison,10 moulmein rise ,apartment,3.0,3.0,11,central region,novena,moulmein,1.31953348960235,103.847029859453,1,1999.0,24.0,1259.0,2310000.0
viva,2 suffolk walk ,condominium,4.0,3.0,11,central region,novena,moulmein,1.3156558637763798,103.84444472109502,1,2012.0,235.0,1959.0,5279500.0
urban treasures,205 jalan eunos ,condominium,3.0,2.0,14,east region,bedok,kaki bukit,1.32936720206385,103.905791323853,1,1930.0,237.0,883.0,1843600.0
infini at east coast,east coast road,apartment,3.0,3.0,15,east region,bedok,frankel,1.30917604327401,103.911351983658,1,2012.0,36.0,1066.0,2262700.0
the watergardens at canberra,canberra drive,apartment,2.0,1.0,27,north region,sembawang,sembawang springs,1.43919858389734,103.829104449216,0,1930.0,448.0,678.0,1131900.0
midwood,hillview rise,condominium,4.0,3.0,23,west region,bukit batok,hillview,1.36286208839026,103.763433915546,0,1930.0,564.0,1249.0,2189000.0
sengkang grand residences,compassvale bow,apartment,3.0,2.0,19,north-east region,sengkang,compassvale,1.3823880275650702,103.892136541911,0,2016.0,680.0,936.0,1595000.0
midtown bay,122 beach road ,apartment,1.0,1.0,7,central region,downtown core,city hall,1.2963566643980902,103.85736876917,0,2021.0,219.0,409.0,1490500.0
76 shenton,76 shenton way ,apartment,1.0,1.0,2,central region,downtown core,anson,1.27347663345182,103.845553160818,0,2014.0,202.0,592.0,1265000.0
nouvel 18,18 anderson road ,condominium,4.0,3.0,10,central region,newton,orange grove,1.31083945362027,103.828325367461,1,2014.0,156.0,1765.0,5439500.0
midtown modern,tan quee lan street,apartment,3.0,2.0,7,central region,downtown core,bugis,1.29850522262382,103.857088439281,0,1930.0,558.0,904.0,2684000.0
tampines street 11,tampines street 11,condominium,3.0,2.0,18,east region,tampines,tampines east,1.3453195492621202,103.945384662025,0,2014.0,679.0,1033.0,1705000.0
grandeur park residences,3 bedok south avenue 3 ,condominium,2.0,1.0,16,east region,bedok,bedok south,1.32582135495427,103.944919226615,0,2020.0,720.0,560.0,1031800.0
east meadows,32 tanah merah kechil road ,condominium,4.0,2.0,16,east region,bedok,bedok north,1.3292937604838502,103.94421519181,0,2002.0,482.0,1238.0,1485000.0
the line @ tanjong rhu,6 tanjong rhu road ,condominium,3.0,3.0,15,central region,kallang,tanjong rhu,1.2984373006061298,103.884408021083,1,2016.0,130.0,1216.0,2809000.0
the sail @ marina bay,marina boulevard,apartment,2.0,2.0,1,central region,downtown core,central subzone,1.28076943504219,103.852658562152,0,2008.0,1111.0,861.0,1870000.0
marina collection,cove drive,condominium,4.0,4.0,4,central region,southern islands,sentosa,1.24297424636053,103.839164641252,0,2011.0,124.0,2519.0,5087500.0
midtown bay,beach road,apartment,3.0,3.0,7,central region,downtown core,city hall,1.2963566643980902,103.85736876917,0,2021.0,219.0,1324.0,4610300.0
eden residences capitol,11 stamford road ,apartment,4.0,4.0,6,central region,downtown core,city hall,1.29298775382221,103.851046829843,0,2016.0,39.0,5963.0,24742700.0
avenue south residence,1 silat avenue ,apartment,2.0,2.0,3,central region,bukit merah,kampong tiong bahru,1.2763901192721498,103.830271330171,0,1930.0,1074.0,689.0,1636800.0
sol acres,choa chu kang grove,executive condominium,1.0,1.0,23,west region,choa chu kang,keat hong,1.3769729039412502,103.751272385118,0,2018.0,1327.0,570.0,768900.0
van holland,holland road,condominium,3.0,3.0,10,central region,bukit timah,leedon park,1.31264956890401,103.794954717761,1,1985.0,69.0,1130.0,3480400.0
one pearl bank,pearl bank,apartment,2.0,2.0,3,central region,outram,pearl's hill,1.2829614865958898,103.839814598308,0,1930.0,774.0,570.0,2092200.0
normanton park,59 normanton park ,apartment,3.0,2.0,5,central region,queenstown,kent ridge,1.28702848318685,103.791616124392,0,1930.0,1862.0,915.0,1760000.0
corals at keppel bay,keppel bay drive,condominium,2.0,2.0,4,central region,bukit merah,maritime square,1.26489010829928,103.816454088109,0,2016.0,366.0,969.0,1881000.0
grange 1866,grange road,apartment,1.0,1.0,10,central region,river valley,one tree hill,1.2998826225442,103.828975333714,1,2013.0,60.0,527.0,1580700.0
marina one residences,marina way,apartment,3.0,2.0,1,central region,downtown core,central subzone,1.27671498507474,103.853326932298,0,2017.0,1042.0,1518.0,4312000.0
rivergate,robertson quay,apartment,3.0,3.0,9,central region,singapore river,robertson quay,1.29173359502464,103.836971346231,1,2009.0,545.0,1496.0,4620000.0
riverbank @ fernvale,15 fernvale close ,condominium,4.0,3.0,28,north-east region,sengkang,fernvale,1.39500084857108,103.881564789742,0,2016.0,555.0,1055.0,1104400.0
cairnhill plaza,53 cairnhill road ,apartment,4.0,5.0,9,central region,newton,cairnhill,1.30616222501617,103.83699453780198,1,1978.0,204.0,3305.0,7920000.0
sennett residence,37 pheng geck avenue ,condominium,2.0,1.0,13,central region,toa payoh,sennett,1.33183478538043,103.869655274598,0,2016.0,332.0,872.0,1408000.0
emerald park,2 indus road ,condominium,2.0,2.0,3,central region,bukit merah,bukit ho swee,1.28948198551176,103.830085402755,0,1993.0,280.0,926.0,1540000.0
bijou,2 jalan mat jambol ,apartment,2.0,1.0,5,central region,queenstown,pasir panjang 2,1.27685386379359,103.791742171785,1,2018.0,120.0,603.0,1443800.0
stars of kovan,upper serangoon road,apartment,2.0,2.0,19,north-east region,hougang,lorong ah soo,1.36150960154245,103.887627003056,0,2019.0,395.0,743.0,1485000.0
oue twin peaks,33 leonie hill road ,condominium,1.0,1.0,9,central region,river valley,leonie hill,1.29916779999053,103.83342756799,0,2015.0,462.0,549.0,1848000.0
the watergardens at canberra,47 canberra drive ,apartment,4.0,3.0,27,north region,sembawang,sembawang springs,1.4401512884871297,103.82780133663,0,1930.0,448.0,1302.0,2050400.0
bartley ridge,42 mount vernon road ,condominium,1.0,1.0,13,central region,toa payoh,joo seng,1.34099076651783,103.880849820172,0,2016.0,868.0,463.0,748000.0
26 newton,26 newton road ,apartment,3.0,2.0,11,central region,novena,moulmein,1.3156928164723998,103.841615456446,1,2016.0,180.0,775.0,2176900.0
marina one residences,21 marina way ,apartment,2.0,2.0,1,central region,downtown core,central subzone,1.27671498507474,103.853326932298,0,2017.0,1042.0,1005.0,2860000.0
juniper hill,ewe boon road,apartment,2.0,1.0,10,central region,tanglin,nassim,1.3164820339781698,103.829897153451,1,1930.0,115.0,635.0,1892000.0
forett@bukit timah,32 toh tuck road ,apartment,3.0,3.0,21,central region,bukit timah,anak bukit,1.33990853882395,103.767523150763,1,1930.0,258.0,1033.0,2263800.0
hedges park condominium,83 flora drive ,condominium,4.0,4.0,17,east region,pasir ris,flora drive,1.35516120754023,103.967844585142,0,2015.0,501.0,1539.0,1859000.0
marina one residences,23 marina way ,apartment,1.0,1.0,1,central region,downtown core,central subzone,1.2772242561628302,103.853694940241,0,2017.0,1042.0,732.0,1837000.0
sims urban oasis,2 sims urban oasis ,condominium,1.0,1.0,14,central region,geylang,aljunied,1.3191895872053898,103.881380824314,0,2013.0,1024.0,560.0,946000.0
zyanya,lorong 25a geylang,apartment,4.0,3.0,14,central region,geylang,aljunied,1.31391724536932,103.883271343775,1,1930.0,34.0,1313.0,2168100.0
corals at keppel bay,keppel bay drive,condominium,3.0,3.0,4,central region,bukit merah,maritime square,1.26489010829928,103.816454088109,0,2016.0,366.0,1500.0,3850000.0
riviera residences,11 riviera drive ,condominium,3.0,3.0,16,east region,bedok,bedok south,1.31569810361721,103.942695656331,1,2007.0,138.0,1216.0,2145000.0
the woodleigh residences,21 bidadari park drive ,apartment,2.0,2.0,13,central region,toa payoh,bidadari,1.33846074116521,103.871405511562,0,1960.0,667.0,743.0,1772100.0
kent ridge hill residences,56a south buona vista road ,condominium,3.0,2.0,5,central region,queenstown,pasir panjang 2,1.28071186552745,103.79096314844,0,1930.0,548.0,786.0,1408000.0
nouvel 18,16 anderson road ,condominium,4.0,4.0,10,central region,newton,orange grove,1.31083945362027,103.828325367461,1,2014.0,156.0,2476.0,7891400.0
marina bay residences,marina boulevard,condominium,3.0,3.0,1,central region,downtown core,central subzone,1.279625798918,103.854987203774,0,2010.0,428.0,1636.0,4158000.0
mayfair gardens,rifle range road,condominium,2.0,2.0,21,central region,bukit timah,swiss club,1.3382224855350802,103.781375965144,0,1989.0,215.0,786.0,1727000.0
heron bay,59 upper serangoon view ,executive condominium,3.0,2.0,19,north-east region,hougang,kangkar,1.37669739983417,103.903413816668,0,2015.0,394.0,1227.0,1353000.0
kopar at newton,8 makeway avenue ,apartment,4.0,4.0,9,central region,novena,moulmein,1.31273110891936,103.840805628022,0,1930.0,378.0,1528.0,3848900.0
d'leedon,13 leedon heights ,condominium,2.0,1.0,10,central region,bukit timah,farrer court,1.31591024154147,103.803764384395,0,2014.0,1715.0,635.0,1485000.0
the iveria,2 kim yam road ,apartment,3.0,2.0,9,central region,river valley,institution hill,1.2952856447523702,103.838567440302,1,1960.0,51.0,947.0,2620200.0
nomu,20 handy road ,apartment,3.0,4.0,9,central region,museum,dhoby ghaut,1.29980932003035,103.846962526481,1,2009.0,50.0,3659.0,7590000.0
le nouvel ardmore,1a ardmore park ,condominium,4.0,6.0,10,central region,newton,orange grove,1.31042398715597,103.827913403265,1,2014.0,43.0,3821.0,17806800.0
suites @ eastcoast,173 upper east coast road ,condominium,1.0,1.0,15,east region,bedok,frankel,1.3146196512206,103.932237491582,1,2012.0,116.0,409.0,715000.0
avenue south residence,silat avenue,apartment,2.0,2.0,3,central region,bukit merah,kampong tiong bahru,1.2763901192721498,103.830271330171,0,1930.0,1074.0,657.0,1383800.0
sky everton,everton road,apartment,4.0,4.0,2,central region,bukit merah,everton park,1.27588976787545,103.83815170912202,1,1930.0,262.0,1346.0,4085400.0
forett@bukit timah,toh tuck road,apartment,2.0,2.0,21,central region,bukit timah,anak bukit,1.33990853882395,103.767523150763,1,1930.0,216.0,689.0,1603800.0
sky everton,everton road,apartment,5.0,4.0,2,central region,bukit merah,everton park,1.27588976787545,103.83815170912202,1,1930.0,262.0,1819.0,6248000.0
d'leedon,leedon heights,condominium,2.0,1.0,10,central region,bukit timah,farrer court,1.3160902186364198,103.802300019532,0,2014.0,1715.0,937.0,1793000.0
ki residences at brookvale,brookvale drive,condominium,2.0,2.0,21,west region,clementi,sunset way,1.33102936528877,103.767519926051,1,1930.0,660.0,700.0,1398100.0
eco,bedok south avenue 3,condominium,2.0,2.0,16,east region,bedok,bedok south,1.32424062857487,103.945166152749,0,2017.0,748.0,840.0,1438800.0
royalgreen,anamalai avenue,condominium,5.0,4.0,10,central region,bukit timah,holland road,1.33161839267294,103.794252400987,1,2021.0,285.0,1475.0,3940600.0
commonwealth towers,230 commonwealth avenue ,condominium,1.0,1.0,3,central region,queenstown,margaret drive,1.29573433474414,103.806030198974,0,2017.0,845.0,474.0,935000.0
loft @ stevens,stevens road,apartment,1.0,1.0,10,central region,tanglin,nassim,1.3178394716996498,103.826223650676,1,2013.0,44.0,947.0,1870000.0
the boutiq,145 killiney road ,apartment,2.0,2.0,9,central region,river valley,oxley,1.29661070295127,103.838583743882,1,2012.0,130.0,883.0,2449600.0
the acacias,sommerville road,apartment,3.0,2.0,13,north-east region,serangoon,lorong chuan,1.34454437704007,103.868923396673,1,2009.0,65.0,1572.0,2255000.0
treasure at tampines,tampines lane,condominium,2.0,2.0,18,east region,tampines,tampines east,1.34503342838494,103.946749425598,0,1930.0,2203.0,678.0,1210000.0
sloane residences,balmoral road,apartment,2.0,2.0,10,central region,tanglin,nassim,1.31568887219293,103.832317948898,1,2021.0,52.0,743.0,2679600.0
pullman residences newton,dunearn road,apartment,2.0,2.0,11,central region,novena,moulmein,1.31467262956125,103.839010845653,1,1930.0,340.0,667.0,1994300.0
nouvel 18,18 anderson road ,condominium,5.0,3.0,10,central region,newton,orange grove,1.31083945362027,103.828325367461,1,2014.0,156.0,5456.0,36756500.0
jalan besar,225 jalan besar ,condominium,3.0,3.0,8,central region,kallang,lavender,1.30928782407603,103.857584554973,0,1970.0,116.0,1442.0,2750000.0
midtown bay,122 beach road ,apartment,3.0,3.0,7,central region,downtown core,city hall,1.2963566643980902,103.85736876917,0,2021.0,219.0,1324.0,4610100.0
one-north eden,slim barracks rise,apartment,5.0,3.0,5,central region,queenstown,one north,1.30326050404129,103.789209731059,0,1930.0,165.0,1259.0,2651000.0
provence residence,35 canberra crescent ,executive condominium,3.0,3.0,27,north region,sembawang,sembawang east,1.4484828125566205,103.827500614159,0,2015.0,413.0,1044.0,1234200.0
the florence residences,hougang avenue 2,apartment,3.0,2.0,19,north-east region,hougang,kovan,1.36721571020099,103.887069987475,0,1930.0,1410.0,936.0,1439900.0
affinity at serangoon,20 serangoon north avenue 1 ,apartment,2.0,1.0,19,north-east region,serangoon,serangoon garden,1.36556375666326,103.87364194752,0,2015.0,1052.0,624.0,1229800.0
sims avenue,sims avenue,condominium,2.0,2.0,14,central region,geylang,aljunied,1.31640485669867,103.887906763671,0,2014.0,72.0,700.0,1538900.0
newest,3 west coast drive ,apartment,4.0,4.0,5,west region,clementi,west coast,1.31641321892511,103.757451263571,1,2016.0,136.0,2863.0,2695000.0
j gateway,2 j gateway ,condominium,2.0,1.0,22,west region,jurong east,jurong gateway,1.33555731797921,103.742416815373,0,2016.0,738.0,624.0,1097800.0
d'leedon,leedon heights,condominium,2.0,2.0,10,central region,bukit timah,farrer court,1.3160902186364198,103.802300019532,0,2014.0,1715.0,1076.0,1958000.0
bartley vue,jalan bunga rampai,apartment,3.0,2.0,19,central region,toa payoh,joo seng,1.34036185896759,103.883846444139,0,2015.0,115.0,947.0,1822700.0
one pearl bank,1 pearl bank ,apartment,1.0,1.0,3,central region,outram,pearl's hill,1.2829614865958898,103.839814598308,0,1930.0,774.0,431.0,1221000.0
the avenir,8 river valley close ,condominium,3.0,3.0,9,central region,river valley,institution hill,1.29474075956073,103.836583709306,1,2011.0,376.0,1141.0,3603600.0
the concourse,300 beach road ,condominium,7.0,5.0,7,central region,downtown core,nicoll,1.30101092385674,103.862484057069,0,1996.0,360.0,11130.0,28380000.0
midwood,hillview rise,condominium,4.0,4.0,23,west region,bukit batok,hillview,1.36286208839026,103.763433915546,0,1930.0,564.0,1259.0,2090000.0
one dusun residences,jalan dusun,apartment,2.0,1.0,12,central region,novena,balestier,1.32696539864482,103.84367423097,1,2016.0,154.0,452.0,913000.0
boulevard 88,orchard boulevard,apartment,2.0,3.0,10,central region,orchard,tanglin,1.3049543207656202,103.827627471264,1,2010.0,154.0,1313.0,5263500.0
canninghill piers,canninghill piers,apartment,3.0,2.0,6,central region,singapore river,clarke quay,1.2914248297393,103.844383363038,0,1970.0,696.0,938.0,2750000.0
skies miltonia,miltonia close,condominium,3.0,3.0,27,north region,yishun,lower seletar,1.4180713949583403,103.84790678249,0,2016.0,420.0,2551.0,2795100.0
boathouse residences,33 upper serangoon view ,condominium,2.0,1.0,19,north-east region,hougang,kangkar,1.37557855184255,103.903316771617,0,2015.0,493.0,732.0,935000.0
mori,guillemard road,apartment,2.0,2.0,14,central region,geylang,aljunied,1.31131219787605,103.882972095616,1,2017.0,137.0,721.0,1426700.0
loft @ stevens,stevens road,apartment,1.0,1.0,10,central region,tanglin,nassim,1.3178394716996498,103.826223650676,1,2013.0,44.0,377.0,1064800.0
the lumos,leonie hill,apartment,3.0,3.0,9,central region,river valley,leonie hill,1.29906600768056,103.832068608699,1,2011.0,53.0,1754.0,4370300.0
rymden 77,lorong h telok kurau,apartment,4.0,3.0,15,east region,bedok,frankel,1.31671012798955,103.911427920628,1,1930.0,31.0,1184.0,2267000.0
forett@bukit timah,toh tuck road,apartment,2.0,1.0,21,central region,bukit timah,anak bukit,1.33990853882395,103.767523150763,1,1930.0,216.0,570.0,1262800.0
trevista,23 lor 3 toa payoh ,condominium,1.0,1.0,12,central region,toa payoh,braddell,1.33783870484494,103.846559772458,0,2012.0,590.0,689.0,1320000.0
duo residences,1 fraser street ,apartment,3.0,3.0,7,central region,downtown core,bugis,1.29916295967817,103.857859536947,0,2017.0,660.0,1722.0,4642000.0
urban treasures,205 jalan eunos ,condominium,2.0,1.0,14,east region,bedok,kaki bukit,1.32936720206385,103.905791323853,1,1930.0,237.0,635.0,1299100.0
twentyone angullia park,21 angullia park ,condominium,3.0,3.0,9,central region,river valley,one tree hill,1.30376655553905,103.830033474096,1,2014.0,54.0,2260.0,8668000.0
lorong 34 geylang,16 lorong 34 geylang ,condominium,2.0,2.0,14,central region,geylang,aljunied,1.31334216639182,103.887624564305,1,2014.0,137.0,1152.0,1320000.0
boulevard 88,orchard boulevard,apartment,2.0,2.0,10,central region,orchard,tanglin,1.3049543207656202,103.827627471264,1,2010.0,154.0,1313.0,5263500.0
provence residence,canberra crescent,executive condominium,4.0,4.0,27,north region,sembawang,sembawang east,1.4477847128746102,103.827451281642,0,2015.0,413.0,1399.0,1812800.0
penrose,sims drive,apartment,3.0,3.0,14,central region,geylang,aljunied,1.31941278190941,103.8794959606,0,1960.0,566.0,1184.0,2099900.0
trilive,113 tampines road ,condominium,3.0,2.0,19,north-east region,hougang,lorong ah soo,1.36175110952447,103.891446797961,1,2018.0,222.0,904.0,1705000.0
pullman residences newton,dunearn road,apartment,3.0,3.0,11,central region,novena,moulmein,1.31467262956125,103.839010845653,1,1930.0,340.0,1163.0,3421000.0
eden residences capitol,stamford road,apartment,5.0,5.0,6,central region,downtown core,city hall,1.29298775382221,103.851046829843,0,2016.0,39.0,6609.0,27423000.0
the coast at sentosa cove,276 ocean drive ,condominium,5.0,3.0,4,central region,southern islands,sentosa,1.24678687668364,103.844402093991,0,2009.0,249.0,2583.0,5115000.0
double bay residences,simei street 4,condominium,3.0,3.0,18,east region,tampines,simei,1.34120980441122,103.956288849924,0,2012.0,646.0,1324.0,1578500.0
seletar park residence,17 seletar road ,condominium,3.0,3.0,28,north-east region,serangoon,seletar hills,1.38653998627,103.869207772374,0,2015.0,276.0,2315.0,2420000.0
the hyde,11 balmoral road ,condominium,1.0,1.0,10,central region,tanglin,nassim,1.31432631656582,103.831065213527,1,1947.5,117.0,495.0,1563800.0
the woodleigh residences,23 bidadari park drive ,apartment,2.0,2.0,13,central region,toa payoh,bidadari,1.3388489988881498,103.871424136458,0,1960.0,667.0,743.0,1871100.0
meyer mansion,meyer road,apartment,3.0,3.0,15,central region,marine parade,mountbatten,1.29647219511777,103.891034649257,1,1930.0,200.0,1109.0,3047000.0
affinity at serangoon,42 serangoon north avenue 1 ,apartment,6.0,4.0,19,north-east region,serangoon,serangoon garden,1.36568309360788,103.874037846175,0,2015.0,1052.0,2325.0,2702700.0
marina collection,13 cove drive ,condominium,4.0,5.0,4,central region,southern islands,sentosa,1.24297424636053,103.839164641252,0,2011.0,124.0,3789.0,7755000.0
dairy farm residences,dairy farm lane,apartment,2.0,2.0,23,west region,bukit panjang,dairy farm,1.3655707838852,103.77504908361,0,1930.0,460.0,721.0,1313600.0
the sorrento,55 west coast road ,condominium,3.0,2.0,5,west region,clementi,clementi west,1.29576313642746,103.766122279701,1,2015.0,131.0,1442.0,2197800.0
residence twenty-two,246 telok kurau road ,apartment,3.0,3.0,15,east region,bedok,frankel,1.31101225037145,103.91104219781602,1,2012.0,22.0,1216.0,2506800.0
reflections at keppel bay,5 keppel bay view ,condominium,2.0,2.0,4,central region,bukit merah,maritime square,1.26742739055301,103.813671410135,0,2011.0,1129.0,1077.0,2189000.0
amber 45,45 amber road ,apartment,4.0,5.0,15,central region,marine parade,marine parade,1.30234997893113,103.901267900768,1,2020.0,139.0,1593.0,4644200.0
the gazania,17 how sun drive ,condominium,3.0,2.0,19,north-east region,serangoon,upper paya lebar,1.34523265795055,103.879382616118,1,1945.0,250.0,850.0,2026200.0
marina collection,cove drive,condominium,5.0,4.0,4,central region,southern islands,sentosa,1.24297424636053,103.839164641252,0,2011.0,124.0,3940.0,7484400.0
one dusun residences,1 jalan dusun ,apartment,2.0,1.0,12,central region,novena,balestier,1.32696539864482,103.84367423097,1,2016.0,154.0,484.0,935000.0
up@robertson quay,robertson quay,apartment,2.0,2.0,9,central region,singapore river,robertson quay,1.29078080113526,103.837445495482,0,2015.0,70.0,1119.0,2587200.0
scotts square,scotts road,apartment,1.0,1.0,9,central region,orchard,boulevard,1.30580609670053,103.833059609864,1,2011.0,338.0,624.0,2728000.0
midtown modern,tan quee lan street,apartment,1.0,1.0,7,central region,downtown core,bugis,1.29850522262382,103.857088439281,0,1930.0,558.0,409.0,1617000.0
the poiz residences,12 meyappa chettiar road ,apartment,3.0,1.0,13,central region,toa payoh,potong pasir,1.33154468020698,103.866996465418,0,2018.0,731.0,859.0,1237500.0
sky everton,50 everton road ,apartment,6.0,5.0,2,central region,bukit merah,everton park,1.27588976787545,103.83815170912202,1,1930.0,262.0,2228.0,7699800.0
river place,60 havelock road ,condominium,2.0,2.0,3,central region,singapore river,robertson quay,1.2896097164683,103.841276389346,0,1999.0,492.0,1055.0,1870000.0
primedge,45 lorong 34 geylang ,apartment,2.0,2.0,14,central region,geylang,aljunied,1.31253129900962,103.888139939124,1,2014.0,36.0,979.0,1375000.0
allsworth park,361 holland road ,condominium,3.0,4.0,10,central region,bukit timah,ulu pandan,1.31987664656565,103.781130442617,1,1985.0,170.0,1959.0,3960000.0
helios residences,17 cairnhill circle ,apartment,3.0,3.0,9,central region,newton,cairnhill,1.30682945098827,103.838164594407,1,2011.0,140.0,1281.0,3608000.0
north park residences,yishun central 1,apartment,4.0,2.0,27,north region,yishun,yishun central,1.4271730204268198,103.836266579618,0,2018.0,920.0,1270.0,2120800.0
eight riversuites,whampoa east,condominium,3.0,2.0,12,central region,kallang,bendemeer,1.3218204074661002,103.864744134712,0,2016.0,862.0,979.0,1683000.0
39 flower road,39 flower road ,condominium,6.0,4.0,19,north-east region,hougang,kovan,1.36101098064253,103.880153745142,1,1998.0,548.0,2260.0,2860000.0
j gateway,gateway drive,condominium,1.0,1.0,22,west region,jurong east,jurong gateway,1.33555731797921,103.742416815373,0,2016.0,738.0,474.0,968000.0
76 shenton,shenton way,apartment,1.0,1.0,2,central region,downtown core,anson,1.27347663345182,103.845553160818,0,2014.0,202.0,592.0,1331000.0
parc clematis,8a jalan lempeng ,apartment,3.0,2.0,5,west region,clementi,faber,1.31702437516587,103.760349630999,0,1930.0,1468.0,969.0,2025100.0
canninghill piers,clarke quay,apartment,3.0,2.0,6,central region,singapore river,clarke quay,1.2914248297393,103.844383363038,0,1970.0,696.0,829.0,2415600.0
lake life,tao ching road,executive condominium,4.0,2.0,22,west region,jurong west,taman jurong,1.33215538990119,103.723817615498,0,2016.0,546.0,1249.0,1738000.0
spottiswoode residences,48 spottiswoode park road ,condominium,1.0,1.0,2,central region,bukit merah,everton park,1.27527115223131,103.83683222505,1,2013.0,351.0,603.0,1518000.0
v on shenton,5a shenton way ,apartment,2.0,1.0,1,central region,downtown core,cecil,1.27708340707631,103.849181343548,0,2017.0,510.0,721.0,2200000.0
affinity at serangoon,18 serangoon north avenue 1 ,apartment,1.0,1.0,19,north-east region,serangoon,serangoon garden,1.36565982088201,103.873224518821,0,2015.0,1052.0,474.0,825000.0
livia,63 pasir ris grove ,condominium,5.0,5.0,18,east region,pasir ris,pasir ris central,1.37233081948329,103.943417527664,0,2011.0,724.0,2679.0,2915000.0
urban lofts,rangoon road,apartment,1.0,1.0,8,central region,kallang,kampong java,1.31416383479813,103.853905530109,1,2010.0,46.0,431.0,811800.0
the lumos,leonie hill,apartment,5.0,3.0,9,central region,river valley,leonie hill,1.29906600768056,103.832068608699,1,2011.0,53.0,2432.0,6380000.0
icon,10 gopeng street ,apartment,1.0,1.0,2,central region,downtown core,tanjong pagar,1.27516997577919,103.844496312645,0,2007.0,646.0,570.0,1188000.0
the peak @ cairnhill i,cairnhill circle,apartment,1.0,1.0,9,central region,newton,cairnhill,1.30819265200559,103.838374549594,1,2014.0,52.0,689.0,1870000.0
riverfront residences,43 hougang avenue 7 ,apartment,4.0,2.0,19,north-east region,hougang,kangkar,1.3705124214993798,103.899646123343,0,2015.0,1472.0,1485.0,2439800.0
martin modern,martin place,condominium,2.0,2.0,9,central region,river valley,institution hill,1.2934966639073,103.8381049101,0,2021.0,450.0,764.0,1961300.0
lloyd sixtyfive,65 lloyd road ,apartment,1.0,1.0,9,central region,river valley,oxley,1.2972729466104298,103.838940257017,1,2016.0,76.0,710.0,3099800.0
palmera east,lorong melayu,apartment,2.0,1.0,14,east region,bedok,kembangan,1.32088202092246,103.91009200714198,1,2012.0,32.0,635.0,1089000.0
scotts 28,28 scotts road ,condominium,2.0,1.0,9,central region,newton,cairnhill,1.30980898738366,103.834917913837,1,1998.0,136.0,1098.0,2915000.0
principal garden,prince charles crescent,condominium,3.0,4.0,3,central region,bukit merah,alexandra north,1.2929389935100302,103.821693138843,0,2018.0,663.0,1195.0,2552000.0
forett@bukit timah,38b toh tuck road ,apartment,5.0,4.0,21,central region,bukit timah,anak bukit,1.34013731823673,103.768787031514,1,1930.0,258.0,1884.0,4350500.0
the lilium,31 how sun road ,condominium,4.0,4.0,19,north-east region,serangoon,upper paya lebar,1.34579628007765,103.880801954328,1,2021.0,80.0,1291.0,2640000.0
martin modern,10 martin place ,condominium,2.0,2.0,9,central region,river valley,institution hill,1.29303736708345,103.837772811242,0,2021.0,450.0,883.0,3105300.0
marina one residences,23 marina way ,apartment,3.0,3.0,1,central region,downtown core,central subzone,1.2772242561628302,103.853694940241,0,2017.0,1042.0,1593.0,4495700.0
meyer mansion,79 meyer road ,apartment,2.0,2.0,15,central region,marine parade,mountbatten,1.29647219511777,103.891034649257,1,1930.0,200.0,689.0,2033900.0
normanton park,normanton park,apartment,5.0,3.0,5,central region,queenstown,kent ridge,1.28749505390492,103.793610594541,0,1930.0,1862.0,1313.0,2560800.0
peak residence,333 thomson road ,condominium,2.0,2.0,11,central region,novena,malcolm,1.32534460429599,103.840724426138,1,2013.0,90.0,829.0,2536000.0
the gazania,5 how sun drive ,condominium,3.0,2.0,19,north-east region,serangoon,upper paya lebar,1.34478691681927,103.878778848783,1,1945.0,250.0,850.0,2026200.0
fourth avenue residences,10 fourth avenue ,apartment,3.0,1.0,10,central region,bukit timah,coronation road,1.33049827080051,103.796577625251,0,1930.0,476.0,646.0,1595000.0
bartley vue,6 jalan bunga rampai ,apartment,2.0,1.0,19,central region,toa payoh,joo seng,1.34036185896759,103.883846444139,0,2015.0,115.0,657.0,1210000.0
pullman residences newton,18 dunearn road ,apartment,3.0,2.0,11,central region,novena,moulmein,1.31467262956125,103.839010845653,1,1930.0,340.0,1163.0,3554100.0
casa al mare,jalan loyang besar,apartment,3.0,3.0,17,east region,pasir ris,pasir ris park,1.37785629605717,103.957089619973,1,2021.0,49.0,1130.0,2005300.0
forett@bukit timah,32 toh tuck road ,apartment,1.0,1.0,21,central region,bukit timah,anak bukit,1.33990853882395,103.767523150763,1,1930.0,258.0,474.0,1071400.0
the lilium,how sun road,condominium,2.0,2.0,19,north-east region,serangoon,upper paya lebar,1.34553420682452,103.880737418528,1,2021.0,80.0,699.0,1688800.0
d'nest,131 pasir ris grove ,condominium,2.0,2.0,18,east region,pasir ris,pasir ris central,1.36983181096693,103.946441576614,0,2017.0,912.0,753.0,1078000.0
one pearl bank,pearl bank,apartment,4.0,2.0,3,central region,outram,pearl's hill,1.2829614865958898,103.839814598308,0,1930.0,774.0,1432.0,3113000.0
starlight suites,11 river valley close ,apartment,2.0,1.0,9,central region,river valley,institution hill,1.29371532764206,103.837276710508,1,2014.0,105.0,775.0,1875500.0
orchard scotts,anthony road,condominium,3.0,3.0,9,central region,newton,cairnhill,1.31032066930575,103.838400921041,0,2007.0,387.0,1872.0,3718000.0
concourse skyline,beach road,apartment,3.0,3.0,7,central region,downtown core,nicoll,1.30026689906653,103.861865589801,0,2014.0,360.0,1389.0,3740000.0
serenity park,tamarind road,condominium,3.0,3.0,28,north-east region,serangoon,seletar hills,1.3882277628451398,103.858740468004,1,1995.0,179.0,1313.0,1650000.0
canninghill piers,clarke quay,apartment,5.0,4.0,6,central region,singapore river,clarke quay,1.2914248297393,103.844383363038,0,1970.0,696.0,2874.0,14080000.0
forte suites,88 mergui road ,apartment,2.0,2.0,8,central region,kallang,kampong java,1.31782799598861,103.851970497394,1,2016.0,106.0,678.0,1307800.0
tedge,328 changi road ,apartment,3.0,2.0,14,east region,bedok,frankel,1.3180672677588998,103.908811491066,1,1960.0,42.0,915.0,1636800.0
alba,8 cairnhill rise ,apartment,3.0,3.0,9,central region,newton,cairnhill,1.3074153524008705,103.83971731014,1,2015.0,50.0,2303.0,8140000.0
v on shenton,shenton way,apartment,2.0,1.0,1,central region,downtown core,cecil,1.27708340707631,103.849181343548,0,2017.0,510.0,721.0,1859000.0
hedges park condominium,flora drive,condominium,4.0,4.0,17,east region,pasir ris,flora drive,1.35521095284251,103.966422045067,0,2015.0,501.0,1539.0,1925000.0
irwell hill residences,2 irwell hill ,apartment,3.0,2.0,9,central region,river valley,leonie hill,1.2972590729906102,103.831023686317,0,1976.0,540.0,657.0,1977800.0
mooi residences,139 holland road ,apartment,3.0,2.0,10,central region,bukit timah,leedon park,1.31257730599051,103.79835625246,1,1930.0,24.0,990.0,2750000.0
the m,middle road,apartment,2.0,1.0,7,central region,downtown core,bugis,1.29751049338808,103.856297302855,0,1930.0,522.0,840.0,2217600.0
the panorama,ang mo kio avenue 2,condominium,4.0,4.0,20,north-east region,ang mo kio,kebun bahru,1.3754964123397602,103.833903324716,0,2017.0,698.0,1313.0,2585000.0
studio 3,28 shanghai road ,apartment,2.0,2.0,10,central region,tanglin,chatsworth,1.29570993713335,103.827568387283,1,2005.0,66.0,883.0,2035000.0
symphony suites,yishun close,condominium,3.0,2.0,27,north region,yishun,yishun east,1.43456191549725,103.844362842957,0,2018.0,660.0,893.0,1100000.0
normanton park,45 normanton park ,apartment,2.0,1.0,5,central region,queenstown,kent ridge,1.28734967872327,103.793056323472,0,1930.0,1862.0,657.0,1236400.0
eastwood regency,40 eastwood road ,apartment,1.0,1.0,16,east region,bedok,bedok south,1.32112663542292,103.957520577028,1,2010.0,75.0,517.0,977800.0
leedon green,26 leedon heights ,condominium,3.0,2.0,10,central region,bukit timah,farrer court,1.31356614088715,103.803217953455,1,1930.0,638.0,818.0,2404700.0
kopar at newton,8 makeway avenue ,apartment,4.0,2.0,9,central region,novena,moulmein,1.31273110891936,103.840805628022,0,1930.0,378.0,1528.0,3752100.0
one bernam,1 bernam street ,apartment,1.0,1.0,2,central region,downtown core,anson,1.2738629435052,103.843710484506,0,1930.0,351.0,441.0,1447600.0
the foresta @ mount faber,wishart road,condominium,2.0,2.0,4,central region,bukit merah,maritime square,1.27035025509729,103.813967319772,1,2014.0,141.0,958.0,2068000.0
parc olympia,66 flora drive ,condominium,3.0,3.0,17,east region,pasir ris,flora drive,1.3558859934741003,103.965304613692,0,2015.0,486.0,1292.0,1430000.0
serenity park,tamarind road,condominium,3.0,3.0,28,north-east region,serangoon,seletar hills,1.3882277628451398,103.858740468004,1,1995.0,179.0,1594.0,2046000.0
river place,havelock road,condominium,1.0,1.0,3,central region,singapore river,robertson quay,1.2896097164683,103.841276389346,0,1999.0,492.0,743.0,1298000.0
sophia residence,sophia road,condominium,3.0,3.0,9,central region,rochor,mount emily,1.30158083491052,103.848507995671,1,2014.0,272.0,1992.0,3740000.0
three 11,311 upper thomson road ,apartment,1.0,1.0,20,central region,bishan,upper thomson,1.35665447059553,103.828736711218,1,2015.0,65.0,581.0,1188000.0
the atelier,makeway avenue,apartment,1.0,1.0,9,central region,novena,moulmein,1.31283039144925,103.841544287772,1,1930.0,120.0,549.0,1595700.0
skysuites@anson,8 enggor street ,apartment,1.0,1.0,2,central region,downtown core,tanjong pagar,1.2746439780471102,103.844741587315,0,2014.0,360.0,365.0,990000.0
the glades,bedok rise,condominium,1.0,1.0,16,east region,bedok,bedok south,1.32713313560276,103.948931009877,0,2016.0,726.0,475.0,825000.0
le regal,geylang road,apartment,1.0,1.0,14,central region,geylang,aljunied,1.31250268727998,103.880368117228,1,2015.0,88.0,366.0,660000.0
watertown,punggol central,apartment,2.0,2.0,19,north-east region,punggol,punggol town centre,1.40717651212161,103.90303963124398,0,2017.0,992.0,915.0,1538900.0
forett@bukit timah,toh tuck road,apartment,2.0,1.0,21,central region,bukit timah,anak bukit,1.33990853882395,103.767523150763,1,1930.0,216.0,570.0,1186900.0
the hyde,balmoral road,condominium,4.0,3.0,10,central region,tanglin,nassim,1.31432631656582,103.831065213527,1,1947.5,117.0,1572.0,5111700.0
martin no 38,38 martin road ,apartment,2.0,2.0,9,central region,river valley,institution hill,1.29213320015397,103.838064913731,1,2011.0,88.0,1130.0,3410000.0
parc clematis,jalan lempeng,apartment,4.0,3.0,5,west region,clementi,faber,1.31710645052527,103.758947292195,0,1930.0,1468.0,1292.0,2344100.0
the avenir,river valley close,condominium,2.0,2.0,9,central region,river valley,institution hill,1.29474075956073,103.836583709306,1,2014.0,376.0,829.0,2585000.0
the foresta @ mount faber,102 wishart road ,condominium,3.0,3.0,4,central region,bukit merah,maritime square,1.27056376702524,103.81362828328,1,2014.0,141.0,1539.0,3080000.0
spring grove,53 grange road ,condominium,3.0,3.0,10,central region,tanglin,chatsworth,1.29810982307445,103.827712685178,0,1996.0,325.0,1389.0,2530000.0
zyanya,lorong 25a geylang,apartment,4.0,3.0,14,central region,geylang,aljunied,1.31391724536932,103.883271343775,1,1930.0,34.0,1195.0,1944800.0
thomson grand,sin ming walk,condominium,3.0,2.0,20,central region,bishan,upper thomson,1.36534920847374,103.830268477018,0,2015.0,361.0,1648.0,2750000.0
the sound,east coast road,condominium,1.0,1.0,15,east region,bedok,frankel,1.31020604772432,103.914763365301,1,2013.0,104.0,603.0,1155000.0
clavon,clementi avenue 1,apartment,4.0,3.0,5,west region,clementi,clementi woods,1.30891243803731,103.76705513582,0,1930.0,640.0,1281.0,2403500.0
leicester suites,leicester road,apartment,1.0,1.0,13,central region,toa payoh,potong pasir,1.33040458254512,103.867093216382,1,2013.0,47.0,463.0,880000.0
the woodleigh residences,21 bidadari park drive ,apartment,2.0,1.0,13,central region,toa payoh,bidadari,1.33846074116521,103.871405511562,0,1960.0,667.0,667.0,1559800.0
the foresta @ mount faber,102 wishart road ,condominium,2.0,1.0,4,central region,bukit merah,maritime square,1.27056376702524,103.81362828328,1,2014.0,141.0,538.0,1320000.0
whitewater,29 pasir ris street 72 ,condominium,3.0,3.0,18,east region,pasir ris,pasir ris west,1.38042350544105,103.935307266177,0,2005.0,397.0,1151.0,1320000.0
urban vista,tanah merah kechil link,condominium,1.0,1.0,16,east region,bedok,bedok north,1.3276667701016,103.944745938969,0,2016.0,582.0,441.0,734800.0
tedge,changi road,apartment,3.0,2.0,14,east region,bedok,frankel,1.3180672677588998,103.908811491066,1,1960.0,42.0,861.0,1575300.0
v on shenton,shenton way,apartment,2.0,2.0,1,central region,downtown core,cecil,1.27708340707631,103.849181343548,0,2017.0,510.0,1033.0,2475000.0
kingsford waterbay,74 upper serangoon view ,apartment,1.0,1.0,19,north-east region,hougang,kangkar,1.3747206566168002,103.903731742438,0,2018.0,1165.0,689.0,970200.0
highline residences,1 kim tian road ,condominium,1.0,1.0,3,central region,bukit merah,tiong bahru,1.28401388660814,103.829756642021,0,2018.0,500.0,506.0,1232000.0
seasons view,pemimpin drive,condominium,3.0,3.0,20,central region,bishan,marymount,1.35222442490505,103.841544324383,0,2000.0,188.0,1141.0,1540000.0
marina collection,13 cove drive ,condominium,4.0,5.0,4,central region,southern islands,sentosa,1.24297424636053,103.839164641252,0,2011.0,124.0,2185.0,4508900.0
klimt cairnhill,cairnhill road,apartment,4.0,3.0,9,central region,newton,cairnhill,1.30896390883059,103.836154325224,1,1930.0,138.0,2056.0,8475500.0
opal suites,1 opal crescent ,apartment,1.0,1.0,12,central region,kallang,bendemeer,1.32751915623427,103.867298187961,1,2012.0,19.0,398.0,756800.0
bliss residences,17 jalan masjid ,apartment,2.0,2.0,14,east region,bedok,kembangan,1.32012879856897,103.91212772924,1,2008.0,23.0,915.0,1431000.0
the avenir,8 river valley close ,condominium,1.0,1.0,9,central region,river valley,institution hill,1.29474075956073,103.836583709306,1,2011.0,376.0,427.0,1681900.0
the jovell,flora drive,condominium,4.0,3.0,17,east region,pasir ris,flora drive,1.35823032280321,103.965573132382,0,1930.0,428.0,1270.0,1901900.0
altez,16 enggor street ,apartment,3.0,3.0,2,central region,downtown core,tanjong pagar,1.27461794103822,103.844319553688,0,2014.0,280.0,1561.0,4703700.0
marina one residences,23 marina way ,apartment,4.0,3.0,1,central region,downtown core,central subzone,1.2772242561628302,103.853694940241,0,2017.0,1042.0,1593.0,4761900.0
the woodleigh residences,19 bidadari park drive ,apartment,4.0,3.0,13,central region,toa payoh,bidadari,1.33817297729956,103.871178370558,0,1960.0,667.0,1259.0,2897400.0
lumiere,2 mistri road ,apartment,2.0,2.0,2,central region,downtown core,tanjong pagar,1.27426245685335,103.846025087372,0,2010.0,168.0,1001.0,1908500.0
eden residences capitol,stamford road,apartment,4.0,3.0,6,central region,downtown core,city hall,1.29298775382221,103.851046829843,0,2016.0,39.0,3003.0,11175600.0
floridian,bukit timah road,condominium,4.0,4.0,21,central region,bukit timah,holland road,1.33257600947573,103.785827347059,1,2012.0,336.0,2336.0,4818000.0
fulcrum,fort road,condominium,2.0,2.0,15,central region,kallang,tanjong rhu,1.29868831359876,103.884853403453,1,2016.0,128.0,678.0,1892000.0
citylights,jellicoe road,condominium,1.0,1.0,8,central region,kallang,lavender,1.3088957673265802,103.863068603426,0,2007.0,600.0,560.0,1045000.0
the iveria,kim yam road,apartment,3.0,2.0,9,central region,river valley,institution hill,1.2952856447523702,103.838567440302,1,1960.0,51.0,904.0,2475000.0
tampines street 11,tampines street 11,condominium,3.0,3.0,18,east region,tampines,tampines east,1.3453195492621202,103.945384662025,0,2014.0,679.0,1033.0,1617000.0
stirling residences,23 stirling road ,apartment,1.0,1.0,3,central region,queenstown,mei chin,1.29161477521886,103.805052653091,0,2021.0,1259.0,441.0,1239700.0
the lumos,leonie hill,apartment,3.0,2.0,9,central region,river valley,leonie hill,1.29906600768056,103.832068608699,1,2011.0,53.0,2593.0,6196300.0
marina one residences,23 marina way ,apartment,3.0,3.0,1,central region,downtown core,central subzone,1.2772242561628302,103.853694940241,0,2017.0,1042.0,1593.0,4761900.0
nouvel 18,16 anderson road ,condominium,4.0,3.0,10,central region,newton,orange grove,1.31083945362027,103.828325367461,1,2014.0,156.0,1765.0,5492300.0
riverfront residences,77 hougang avenue 7 ,apartment,2.0,1.0,19,north-east region,hougang,kangkar,1.3712766425144198,103.900554105553,0,2015.0,1472.0,689.0,1080200.0
loyang valley,204 loyang avenue ,condominium,2.0,2.0,17,east region,pasir ris,loyang east,1.36740497281175,103.969165586472,0,1985.0,362.0,1000.0,1078000.0
seascape,cove way,condominium,3.0,4.0,4,central region,southern islands,sentosa,1.23978494620582,103.83727712150998,0,2011.0,151.0,2164.0,5610000.0
watercolours,29 pasir ris link ,executive condominium,3.0,3.0,18,east region,pasir ris,pasir ris park,1.3762202996298998,103.959523461706,0,2014.0,416.0,1238.0,1237500.0
the inflora,flora drive,condominium,2.0,2.0,17,east region,pasir ris,flora drive,1.35632843123308,103.966578200418,0,2016.0,396.0,742.0,1045000.0
the hyde,11 balmoral road ,condominium,1.0,1.0,10,central region,tanglin,nassim,1.31432631656582,103.831065213527,1,1947.5,117.0,495.0,1556500.0
the lakefront residences,lakeside drive,condominium,3.0,2.0,22,west region,jurong west,taman jurong,1.34335239967805,103.719303577001,0,2014.0,629.0,1023.0,1650000.0
leedon green,leedon heights,condominium,3.0,2.0,10,central region,bukit timah,farrer court,1.31356614088715,103.803217953455,1,1930.0,638.0,958.0,2821500.0
waterview,tampines avenue 1,condominium,2.0,3.0,18,east region,tampines,tampines west,1.34856753039649,103.926675325727,0,2014.0,696.0,926.0,1023000.0
midwood,10 hillview rise ,condominium,5.0,4.0,23,west region,bukit batok,hillview,1.36410574565492,103.763670992519,0,1930.0,564.0,1259.0,2151600.0
pullman residences newton,18 dunearn road ,apartment,1.0,1.0,11,central region,novena,moulmein,1.31467262956125,103.839010845653,1,1930.0,340.0,463.0,1519100.0
vibes@upper serangoon,488 upper serangoon road ,apartment,2.0,2.0,19,north-east region,serangoon,upper paya lebar,1.34481825847721,103.87123873961,1,2016.0,60.0,850.0,1045000.0
kopar at newton,4 makeway avenue ,apartment,1.0,1.0,9,central region,novena,moulmein,1.31242688268348,103.841064338246,0,1930.0,378.0,517.0,1355200.0
nouvel 18,18 anderson road ,condominium,2.0,2.0,10,central region,newton,orange grove,1.31083945362027,103.828325367461,1,2014.0,156.0,1539.0,4967600.0
pullman residences newton,18 dunearn road ,apartment,3.0,3.0,11,central region,novena,moulmein,1.31467262956125,103.839010845653,1,1930.0,340.0,1163.0,3396800.0
the sail @ marina bay,4 marina boulevard ,apartment,1.0,1.0,1,central region,downtown core,central subzone,1.28076943504219,103.852658562152,0,2008.0,1111.0,657.0,1408000.0
changi green,upper changi road east,condominium,3.0,3.0,16,east region,tampines,xilin,1.3447711497209298,103.963820610847,1,1998.0,256.0,1216.0,1540000.0
le regal,340 geylang road ,apartment,1.0,1.0,14,central region,geylang,aljunied,1.31250268727998,103.880368117228,1,2015.0,88.0,366.0,676500.0
the trilinq,28 jalan lempeng ,condominium,5.0,4.0,5,west region,clementi,faber,1.3182475031588703,103.762081253712,0,2017.0,755.0,4607.0,5473100.0
normanton park,normanton park,apartment,5.0,3.0,5,central region,queenstown,kent ridge,1.28749505390492,103.793610594541,0,1930.0,1862.0,1515.0,3080000.0
ola,78 anchorvale crescent ,executive condominium,4.0,4.0,19,north-east region,sengkang,anchorvale,1.3971040106626498,103.892771167018,0,1930.0,548.0,1389.0,1537800.0
bishopsgate residences,bishopsgate,condominium,4.0,6.0,10,central region,tanglin,chatsworth,1.2984340703381398,103.824518766243,1,2012.0,31.0,6082.0,27839900.0
the glades,bedok rise,condominium,2.0,2.0,16,east region,bedok,bedok south,1.32713313560276,103.948931009877,0,2016.0,726.0,721.0,1265000.0
peak residence,thomson road,condominium,1.0,1.0,11,central region,novena,malcolm,1.32534460429599,103.840724426138,1,2013.0,90.0,539.0,1373200.0
avenue south residence,silat avenue,apartment,1.0,1.0,3,central region,bukit merah,kampong tiong bahru,1.2763901192721498,103.830271330171,0,1930.0,1074.0,527.0,1375000.0
the jovell,flora drive,condominium,2.0,1.0,17,east region,pasir ris,flora drive,1.35823032280321,103.965573132382,0,1930.0,428.0,645.0,945900.0
river place,60 havelock road ,condominium,4.0,3.0,3,central region,singapore river,robertson quay,1.2896097164683,103.841276389346,0,1999.0,492.0,2110.0,3504300.0
35 gilstead,35 gilstead road ,apartment,3.0,3.0,11,central region,novena,moulmein,1.31711023904743,103.837956844749,1,2013.0,70.0,926.0,2572100.0
hillion residences,10 jelebu road ,apartment,6.0,4.0,23,west region,bukit panjang,jelebu,1.3784291899576202,103.763427108552,0,2017.0,546.0,3208.0,3740000.0
sims urban oasis,2 sims urban oasis ,condominium,2.0,1.0,14,central region,geylang,aljunied,1.3191895872053898,103.881380824314,0,2017.0,1024.0,710.0,1320000.0
holland grove road,18 holland grove road ,condominium,3.0,3.0,10,central region,bukit timah,ulu pandan,1.31675718224416,103.783239125241,0,2006.5,134.0,1464.0,3337500.0
avenue south residence,silat avenue,apartment,2.0,2.0,3,central region,bukit merah,kampong tiong bahru,1.2763901192721498,103.830271330171,0,1930.0,1074.0,689.0,1857700.0
central green condominium,9 jalan membina ,condominium,3.0,3.0,3,central region,bukit merah,tiong bahru station,1.28451338901171,103.82771157984,0,1995.0,412.0,1292.0,2090000.0
kingsford . hillview peak,hillview rise,condominium,3.0,3.0,23,west region,bukit batok,hillview,1.36478651146586,103.764763618001,0,2017.0,512.0,2207.0,2640000.0
the sail @ marina bay,marina boulevard,apartment,3.0,3.0,1,central region,downtown core,central subzone,1.28076943504219,103.852658562152,0,2008.0,1111.0,1900.0,4345000.0
parkwood residences,yio chu kang road,apartment,3.0,2.0,19,north-east region,hougang,kovan,1.36652661429401,103.875828348014,0,1930.0,18.0,861.0,1540000.0
normanton park,45 normanton park ,apartment,4.0,4.0,5,central region,queenstown,kent ridge,1.28734967872327,103.793056323472,0,1930.0,1862.0,1313.0,2521200.0
brookvale drive,brookvale drive,condominium,3.0,2.0,21,west region,clementi,sunset way,1.33102936528877,103.767519926051,0,1930.0,660.0,1109.0,2350700.0
affinity at serangoon,26 serangoon north avenue 1 ,apartment,4.0,4.0,19,north-east region,serangoon,serangoon garden,1.3661870297630598,103.873674807486,0,2015.0,1052.0,1582.0,2759900.0
cyan,keng chin road,condominium,2.0,2.0,10,central region,tanglin,nassim,1.31826157961172,103.830352987178,1,2014.0,278.0,1066.0,2931500.0
the lilium,how sun road,condominium,3.0,2.0,19,north-east region,serangoon,upper paya lebar,1.34553420682452,103.880737418528,1,2021.0,80.0,710.0,1652500.0
kopar at newton,makeway avenue,apartment,3.0,2.0,9,central region,novena,moulmein,1.31242688268348,103.841064338246,0,1930.0,378.0,915.0,2523400.0
the sail @ marina bay,2 marina boulevard ,apartment,1.0,1.0,1,central region,downtown core,central subzone,1.28076943476846,103.852658562152,0,2008.0,1111.0,657.0,1485000.0
neu at novena,27 moulmein rise ,apartment,3.0,2.0,11,central region,novena,moulmein,1.31961486592659,103.845969245127,1,1799.0,87.0,861.0,2460700.0
26 newton,26 newton road ,apartment,3.0,2.0,11,central region,novena,moulmein,1.3156928164723998,103.841615456446,1,2016.0,180.0,1539.0,3300000.0
icon,10 gopeng street ,apartment,1.0,2.0,2,central region,downtown core,tanjong pagar,1.27516997577919,103.844496312645,0,2007.0,646.0,786.0,1485000.0
sing avenue,sing avenue,walk-up apt,3.0,3.0,8,central region,kallang,kampong java,1.31442784690881,103.854590851448,1,1974.0,8.0,1216.0,1903000.0
royalgreen,4 anamalai avenue ,condominium,2.0,1.0,10,central region,bukit timah,holland road,1.33114412030929,103.794196158906,1,2021.0,285.0,635.0,1878800.0
skysuites@anson,enggor street,apartment,1.0,1.0,2,central region,downtown core,tanjong pagar,1.2746439780471102,103.844741587315,0,2014.0,360.0,365.0,1100000.0
one meyer,meyer place,apartment,3.0,2.0,15,central region,marine parade,mountbatten,1.29824018210274,103.886163635826,1,1930.0,66.0,1033.0,2726900.0
parc clematis,10 jalan lempeng ,apartment,2.0,1.0,5,west region,clementi,faber,1.3173244552613002,103.760332496122,0,1930.0,1468.0,689.0,1322200.0
the florence residences,hougang avenue 2,apartment,1.0,1.0,19,north-east region,hougang,kovan,1.36721571020099,103.887069987475,0,1930.0,1410.0,484.0,1035100.0
klimt cairnhill,71 cairnhill road ,apartment,7.0,6.0,9,central region,newton,cairnhill,1.30896390883059,103.836154325224,1,1930.0,138.0,5920.0,30799900.0
northwave,111 woodlands view ,executive condominium,2.0,2.0,25,north region,woodlands,woodlands east,1.44373743554443,103.810309503009,0,2019.0,358.0,753.0,869000.0
caspian,lakeside drive,condominium,3.0,2.0,22,west region,jurong west,taman jurong,1.3426574015858102,103.718174762722,0,2012.0,712.0,1280.0,1980000.0
hedges park condominium,flora drive,condominium,5.0,3.0,17,east region,pasir ris,flora drive,1.35521095284251,103.966422045067,0,2015.0,501.0,1539.0,1705000.0
parc vista,454 corporation road ,condominium,2.0,2.0,22,west region,jurong west,hong kah,1.3441300441316,103.717761466942,0,1998.0,638.0,1076.0,1100000.0
dairy farm residences,dairy farm lane,apartment,2.0,2.0,23,west region,bukit panjang,dairy farm,1.3655707838852,103.77504908361,0,1930.0,460.0,721.0,1276000.0
the alps residences,107 tampines street 86 ,condominium,1.0,1.0,18,east region,tampines,tampines west,1.35487857823309,103.929231871684,0,2019.0,626.0,506.0,825000.0
nin residence,85 pheng geck avenue ,apartment,2.0,2.0,13,central region,toa payoh,sennett,1.33299652357223,103.869983175672,0,2014.0,219.0,850.0,1342000.0
cairnhill crest,cairnhill circle,condominium,3.0,3.0,9,central region,newton,cairnhill,1.30557829834877,103.838140768626,1,2004.0,248.0,2636.0,5500000.0
the avenir,river valley close,condominium,4.0,4.0,9,central region,river valley,institution hill,1.29474075956073,103.836583709306,1,2014.0,376.0,2411.0,8034400.0
opal suites,opal crescent,apartment,2.0,1.0,12,central region,kallang,bendemeer,1.32751915623427,103.867298187961,1,2012.0,19.0,452.0,825000.0
parc central residences,tampines street 86,condominium,4.0,2.0,18,east region,tampines,tampines west,1.35629068660571,103.930616424575,0,2017.0,700.0,893.0,1056000.0
corals at keppel bay,keppel bay drive,condominium,1.0,1.0,4,central region,bukit merah,maritime square,1.26489010829928,103.816454088109,0,2016.0,366.0,689.0,1673100.0
parc rosewood,97 rosewood drive ,condominium,1.0,1.0,25,north region,woodlands,woodgrove,1.42723729858592,103.78569015345,0,2014.0,689.0,431.0,638000.0
the concourse,beach road,condominium,2.0,2.0,7,central region,downtown core,nicoll,1.3008178172824,103.861939079699,0,1996.0,360.0,1098.0,2538700.0
mori,guillemard road,apartment,4.0,3.0,14,central region,geylang,aljunied,1.31131219787605,103.882972095616,1,2017.0,137.0,1259.0,2440900.0
altez,enggor street,apartment,1.0,2.0,2,central region,downtown core,tanjong pagar,1.27461794103822,103.844319553688,0,2014.0,280.0,840.0,1980000.0
kopar at newton,8 makeway avenue ,apartment,3.0,2.0,9,central region,novena,moulmein,1.31273110891936,103.840805628022,0,1930.0,378.0,915.0,2541000.0
scotts square,6 scotts road ,apartment,1.0,1.0,9,central region,orchard,boulevard,1.30580609670053,103.833059609864,1,2011.0,338.0,624.0,2369400.0
the oceanfront @ sentosa cove,ocean drive,condominium,4.0,5.0,4,central region,southern islands,sentosa,1.24374486501866,103.842511120502,0,2010.0,264.0,5985.0,15400000.0
tre residences,9 geylang east avenue 1 ,condominium,3.0,2.0,14,central region,geylang,aljunied,1.3172278261208998,103.885015905304,0,2018.0,250.0,861.0,1562000.0
parc clematis,jalan lempeng,apartment,5.0,5.0,5,west region,clementi,faber,1.31710645052527,103.758947292195,0,1930.0,1468.0,1711.0,2962300.0
perfect ten,321 bukit timah road ,apartment,2.0,2.0,10,central region,tanglin,nassim,1.3170647562958702,103.832881868381,1,2006.5,230.0,797.0,3196600.0
stillz residence,lorong 108 changi,apartment,2.0,2.0,15,central region,geylang,geylang east,1.31627726515293,103.904948742515,1,2011.0,25.0,1001.0,1430000.0
the line @ tanjong rhu,tanjong rhu road,condominium,3.0,2.0,15,central region,kallang,tanjong rhu,1.2984373006061298,103.884408021083,1,2016.0,130.0,1055.0,2539200.0
regent heights,bukit batok east avenue 5,condominium,2.0,3.0,23,west region,bukit batok,guilin,1.35212089071653,103.756704783563,0,1999.0,645.0,1023.0,935000.0
icon,gopeng street,apartment,3.0,2.0,2,central region,downtown core,tanjong pagar,1.27516997523174,103.844496312645,0,2007.0,646.0,1249.0,2640000.0
avenue south residence,silat avenue,apartment,2.0,1.0,3,central region,bukit merah,kampong tiong bahru,1.2763901192721498,103.830271330171,0,1930.0,1074.0,657.0,1534500.0
one pearl bank,1 pearl bank ,apartment,3.0,3.0,3,central region,outram,pearl's hill,1.2829614865958898,103.839814598308,0,1930.0,774.0,1152.0,2846800.0
parc olympia,64 flora drive ,condominium,2.0,1.0,17,east region,pasir ris,flora drive,1.35577257355415,103.964916673398,0,2015.0,486.0,646.0,789800.0
parc greenwich,fernvale lane,executive condominium,3.0,2.0,28,north-east region,sengkang,fernvale,1.38915074349074,103.870336091468,0,2016.0,496.0,958.0,1195700.0
normanton park,normanton park,apartment,1.0,1.0,5,central region,queenstown,kent ridge,1.28749505390492,103.793610594541,0,1930.0,1862.0,517.0,1112100.0
gem residences,lorong 5 toa payoh,condominium,3.0,3.0,12,central region,toa payoh,boon teck,1.33874811788053,103.850881932323,0,2019.0,578.0,979.0,1925000.0
myra,meyappa chettiar road,apartment,1.0,1.0,13,central region,toa payoh,potong pasir,1.3305625038871298,103.86788498045,1,1930.0,85.0,474.0,1100000.0
apleton view,sinaran drive,apartment,3.0,3.0,11,central region,novena,moulmein,1.31906972390327,103.846101471001,1,2003.0,37.0,1851.0,3289000.0
midwood,hillview rise,condominium,3.0,2.0,23,west region,bukit batok,hillview,1.36286208839026,103.763433915546,0,1930.0,564.0,893.0,1596100.0
lorong 34 geylang,lorong 34 geylang,apartment,3.0,2.0,14,central region,geylang,aljunied,1.31382470792201,103.887870596439,1,2014.0,36.0,1152.0,1276000.0
natura@hillview,18 hillview terrace ,apartment,3.0,1.0,23,west region,bukit batok,guilin,1.35300842405369,103.759134678556,1,2015.0,193.0,1066.0,1375000.0
the clift,21 mccallum street ,apartment,1.0,1.0,1,central region,downtown core,cecil,1.27940014288617,103.847329579148,0,2011.0,312.0,527.0,1317800.0
draycott eight,draycott park,condominium,2.0,2.0,10,central region,newton,orange grove,1.31105604490125,103.832081056609,0,2005.0,136.0,1173.0,2846800.0
corals at keppel bay,1 keppel bay drive ,condominium,3.0,2.0,4,central region,bukit merah,maritime square,1.26489010829928,103.816454088109,0,2016.0,366.0,1249.0,2915000.0
kingsford waterbay,upper serangoon view,apartment,2.0,2.0,19,north-east region,hougang,kangkar,1.37447287448697,103.90307048623,0,2018.0,1165.0,678.0,1023000.0
mooi residences,139 holland road ,apartment,3.0,2.0,10,central region,bukit timah,leedon park,1.31257730599051,103.79835625246,1,1930.0,24.0,850.0,2391300.0
rymden 77,lorong h telok kurau,apartment,3.0,2.0,15,east region,bedok,frankel,1.31671012798955,103.911427920628,1,1930.0,31.0,1346.0,2171400.0
wilshire residences,30 farrer road ,apartment,3.0,2.0,10,central region,tanglin,tyersall,1.3130616127338102,103.80464762708598,1,2006.5,85.0,732.0,2124100.0
la fiesta,sengkang square,condominium,3.0,2.0,19,north-east region,sengkang,sengkang town centre,1.3896154541698602,103.895880315991,0,2016.0,810.0,850.0,1375000.0
city regency,18 saint michael's road ,apartment,1.0,1.0,12,central region,kallang,bendemeer,1.32638091456349,103.86384065497,1,2009.0,56.0,484.0,734800.0
a treasure trove,76 punggol walk ,condominium,3.0,3.0,19,north-east region,punggol,matilda,1.4048601754389298,103.899371863626,0,2015.0,882.0,1044.0,1540000.0
forett@bukit timah,toh tuck road,apartment,3.0,2.0,21,central region,bukit timah,anak bukit,1.33990853882395,103.767523150763,1,1930.0,216.0,947.0,1985500.0
amber park,16 amber gardens ,condominium,4.0,3.0,15,central region,marine parade,marine parade,1.3003778859504198,103.899209385533,1,1986.0,592.0,1302.0,3322000.0
the arden,phoenix road,apartment,2.0,2.0,23,west region,bukit batok,gombak,1.3772718818188998,103.756785085676,0,2016.0,105.0,721.0,1100000.0
clavon,clementi avenue 1,apartment,5.0,4.0,5,west region,clementi,clementi woods,1.30891243803731,103.76705513582,0,1930.0,640.0,1690.0,2843500.0
mirage tower,80 kim seng road ,condominium,3.0,3.0,9,central region,singapore river,robertson quay,1.2919811183578702,103.834261909893,1,1996.0,248.0,1744.0,4620000.0
the woodleigh residences,bidadari park drive,apartment,4.0,3.0,13,central region,toa payoh,bidadari,1.33821440339182,103.87208996414302,0,1960.0,667.0,1281.0,2902900.0
76 shenton,76 shenton way ,apartment,1.0,1.0,2,central region,downtown core,anson,1.27347663345182,103.845553160818,0,2014.0,202.0,624.0,1430000.0
city suites,235 balestier road ,apartment,1.0,1.0,12,central region,novena,balestier,1.3212914342901,103.852179456118,1,2017.0,56.0,527.0,1097800.0
peak residence,333 thomson road ,condominium,4.0,3.0,11,central region,novena,malcolm,1.32534460429599,103.840724426138,1,2013.0,90.0,1389.0,3913100.0
the clearwater,4 bedok reservoir view ,condominium,2.0,2.0,16,east region,bedok,bedok reservoir,1.33775014326631,103.933985479062,0,2001.0,420.0,1000.0,1155000.0
reflections at keppel bay,17 keppel bay view ,condominium,4.0,4.0,4,central region,bukit merah,maritime square,1.26625830660217,103.810803288694,0,2011.0,1129.0,3283.0,9900000.0
h2o residences,40 fernvale link ,condominium,1.0,1.0,28,north-east region,sengkang,fernvale,1.39263720451204,103.879380995151,0,2012.0,521.0,527.0,770000.0
nyon,12 amber road ,apartment,2.0,2.0,15,central region,marine parade,marine parade,1.29980838493639,103.898492758597,1,2021.0,92.0,721.0,2062100.0
sturdee residences,beatty road,condominium,3.0,2.0,8,central region,kallang,lavender,1.31291695250751,103.859047068258,0,2019.0,305.0,947.0,2068000.0
verdale,2 de souza avenue ,apartment,2.0,2.0,21,central region,bukit timah,anak bukit,1.34569360134293,103.769862628576,0,1960.0,258.0,743.0,1400500.0
avenue south residence,11 silat avenue ,apartment,2.0,1.0,3,central region,bukit merah,kampong tiong bahru,1.2766295341073302,103.829105212029,0,1930.0,1074.0,657.0,1669800.0
mackenzie 88,88 mackenzie road ,apartment,2.0,2.0,9,central region,rochor,mackenzie,1.30647254108334,103.847682721688,1,2009.0,55.0,840.0,1705000.0
sturdee residences,10 beatty road ,condominium,1.0,1.0,8,central region,kallang,lavender,1.31291695250751,103.859047068258,0,2019.0,305.0,420.0,1045000.0
marina one residences,23 marina way ,apartment,2.0,2.0,1,central region,downtown core,central subzone,1.2772242561628302,103.853694940241,0,2017.0,1042.0,1101.0,2319700.0
35 gilstead,gilstead road,apartment,3.0,4.0,11,central region,novena,moulmein,1.31711023904743,103.837956844749,1,2014.0,70.0,1647.0,4056800.0
eco,bedok south avenue 3,condominium,2.0,1.0,16,east region,bedok,bedok south,1.32424062857487,103.945166152749,0,2017.0,748.0,635.0,977900.0
marina one residences,marina way,apartment,2.0,2.0,1,central region,downtown core,central subzone,1.27671498507474,103.853326932298,0,2017.0,1042.0,1173.0,3292300.0
alexis,alexandra road,apartment,1.0,1.0,3,central region,queenstown,mei chin,1.29130379243474,103.807350978054,1,2012.0,293.0,398.0,800800.0
the reef at kings dock,harbourfront avenue,condominium,3.0,2.0,4,central region,bukit merah,maritime square,1.26493085106915,103.81714789225,0,1960.0,429.0,1216.0,3119600.0
viva,suffolk walk,condominium,3.0,1.0,11,central region,novena,moulmein,1.3156558637763798,103.84444472109502,1,2012.0,235.0,1044.0,2640000.0
forett@bukit timah,toh tuck road,apartment,2.0,1.0,21,central region,bukit timah,anak bukit,1.33990853882395,103.767523150763,1,1930.0,216.0,474.0,1104400.0
meyer mansion,79 meyer road ,apartment,1.0,1.0,15,central region,marine parade,mountbatten,1.29647219511777,103.891034649257,1,1930.0,200.0,484.0,1480600.0
eco sanctuary,chestnut avenue,condominium,3.0,2.0,23,west region,bukit panjang,bangkit,1.37120910726776,103.776854712827,0,2016.0,483.0,775.0,1210000.0
canninghill piers,clarke quay,apartment,3.0,2.0,6,central region,singapore river,clarke quay,1.2914248297393,103.844383363038,0,1970.0,696.0,1259.0,3506800.0
parkwood residences,yio chu kang road,apartment,5.0,5.0,19,north-east region,hougang,kovan,1.36652661429401,103.875828348014,0,1930.0,18.0,1905.0,2992000.0
the landmark,173 chin swee road ,condominium,2.0,2.0,3,central region,outram,pearl's hill,1.28617084485828,103.839567626644,0,2020.0,396.0,764.0,1876200.0
the lakefront residences,46 lakeside drive ,condominium,2.0,2.0,22,west region,jurong west,taman jurong,1.34261418714372,103.719375567241,0,2014.0,629.0,1119.0,1427800.0
one holland village residences,5 holland village way ,apartment,2.0,2.0,10,central region,queenstown,holland drive,1.31210286582964,103.793774278922,0,1930.0,296.0,829.0,2196300.0
the coast at sentosa cove,276 ocean drive ,condominium,4.0,5.0,4,central region,southern islands,sentosa,1.24678687668364,103.844402093991,0,2009.0,249.0,2900.0,6050000.0
parc centennial,kampong java road,apartment,2.0,3.0,9,central region,novena,moulmein,1.31317508970172,103.84379589573,1,2011.0,51.0,1163.0,2200000.0
fourth avenue residences,fourth avenue,apartment,2.0,2.0,10,central region,bukit timah,coronation road,1.3297125646108705,103.796996065203,0,1930.0,476.0,710.0,1801800.0
parc clematis,jalan lempeng,apartment,2.0,1.0,5,west region,clementi,faber,1.31710645052527,103.758947292195,0,1930.0,1468.0,689.0,1441000.0
h2o residences,40 fernvale link ,condominium,2.0,2.0,28,north-east region,sengkang,fernvale,1.39263720451204,103.879380995151,0,2015.0,521.0,883.0,1012000.0
turquoise,cove drive,condominium,3.0,3.0,4,central region,southern islands,sentosa,1.2429639958111298,103.83710621358802,0,2010.0,91.0,2142.0,4085900.0
amber park,18a amber gardens ,condominium,5.0,6.0,15,central region,marine parade,marine parade,1.30037788649789,103.899209385261,1,1986.0,592.0,2336.0,6036800.0
the tennery,5a woodlands road ,apartment,2.0,2.0,23,west region,choa chu kang,teck whye,1.38080905267333,103.759870901492,0,2014.0,338.0,936.0,1210000.0
seascape,cove way,condominium,3.0,3.0,4,central region,southern islands,sentosa,1.23978494620582,103.83727712150998,0,2011.0,151.0,2174.0,5346000.0
citylights,jellicoe road,condominium,4.0,3.0,8,central region,kallang,lavender,1.3088957673265802,103.863068603426,0,2007.0,600.0,1841.0,3630000.0
lake grande,2 jurong lake link ,condominium,3.0,3.0,22,west region,jurong west,hong kah,1.3454744912953502,103.724623449937,0,2019.0,710.0,1077.0,1705000.0
the greenwich,seletar road,condominium,1.0,1.0,28,north-east region,serangoon,seletar hills,1.38718841691871,103.869337214926,0,2014.0,319.0,614.0,863500.0
ardmore ii,ardmore park,condominium,4.0,5.0,10,central region,newton,orange grove,1.3098017858050002,103.827540183798,1,2010.0,118.0,2023.0,7359000.0
lloyd sixtyfive,65 lloyd road ,apartment,2.0,1.0,9,central region,river valley,oxley,1.2972729466104298,103.838940257017,1,2016.0,76.0,710.0,3099500.0
up@robertson quay,robertson quay,apartment,1.0,1.0,9,central region,singapore river,robertson quay,1.29078080113526,103.837445495482,0,2015.0,70.0,463.0,1408000.0
the centris,77 jurong west central 3 ,apartment,2.0,2.0,22,west region,jurong west,jurong west central,1.3395731748738602,103.704455860624,0,2009.0,610.0,1011.0,1518000.0
marina one residences,21 marina way ,apartment,3.0,3.0,1,central region,downtown core,central subzone,1.27671498507474,103.853326932298,0,2017.0,1042.0,1593.0,4180700.0
rezi 26,5a lorong 26 geylang ,apartment,3.0,3.0,14,central region,geylang,aljunied,1.31297801853119,103.885057246137,1,2015.0,106.0,1088.0,1540000.0
clavon,clementi avenue 1,apartment,5.0,3.0,5,west region,clementi,clementi woods,1.30891243803731,103.76705513582,0,1930.0,640.0,1690.0,2904000.0
allsworth park,holland road,condominium,2.0,1.0,10,central region,bukit timah,ulu pandan,1.31987664656565,103.781130442617,1,1985.0,170.0,1033.0,2013000.0
sophia 98,98 sophia road ,apartment,2.0,2.0,9,central region,rochor,mount emily,1.30234468524969,103.847116002567,1,2002.0,16.0,980.0,2068000.0
bishopsgate residences,bishopsgate,condominium,4.0,5.0,10,central region,tanglin,chatsworth,1.2984340703381398,103.824518766243,1,2012.0,31.0,2938.0,12980000.0
the inflora,flora drive,condominium,4.0,4.0,17,east region,pasir ris,flora drive,1.35632843123308,103.966578200418,0,2016.0,396.0,1335.0,1595000.0
spottiswoode residences,48 spottiswoode park road ,condominium,2.0,2.0,2,central region,bukit merah,everton park,1.27527115223131,103.83683222505,1,2013.0,351.0,936.0,2310000.0
the clift,mccallum street,apartment,1.0,1.0,1,central region,downtown core,cecil,1.27940014288617,103.847329579148,0,2011.0,312.0,506.0,1210000.0
normanton park,normanton park,apartment,1.0,1.0,5,central region,queenstown,kent ridge,1.28749505390492,103.793610594541,0,1930.0,1862.0,527.0,1024100.0
the sail @ marina bay,marina boulevard,apartment,1.0,1.0,1,central region,downtown core,central subzone,1.28076943504219,103.852658562152,0,2008.0,1111.0,667.0,1298000.0
sengkang grand residences,compassvale bow,apartment,3.0,2.0,19,north-east region,sengkang,compassvale,1.3823880275650702,103.892136541911,0,2016.0,680.0,936.0,1589500.0
jervois lodge,jervois road,condominium,2.0,2.0,10,central region,tanglin,chatsworth,1.29363933147639,103.823498620439,1,1997.0,108.0,786.0,2054800.0
palm isles,40 flora drive ,condominium,1.0,1.0,17,east region,pasir ris,flora drive,1.35641927465864,103.963823526501,0,2015.0,429.0,560.0,748000.0
seaside residences,10 seaside residences ,apartment,2.0,2.0,15,east region,bedok,siglap,1.30781850435166,103.928209048481,0,2021.0,841.0,786.0,1867800.0
the sail @ marina bay,2 marina boulevard ,apartment,1.0,2.0,1,central region,downtown core,central subzone,1.28076943476846,103.852658562152,0,2008.0,1111.0,667.0,1540000.0
the pier at robertson,mohamed sultan road,apartment,1.0,1.0,9,central region,singapore river,robertson quay,1.29141779825148,103.840553123026,1,2006.0,201.0,678.0,1789900.0
klimt cairnhill,71 cairnhill road ,apartment,4.0,4.0,9,central region,newton,cairnhill,1.30896390883059,103.836154325224,1,1930.0,138.0,2368.0,11458400.0
mayfair gardens,10 rifle range road ,condominium,3.0,3.0,21,central region,bukit timah,swiss club,1.33862751968993,103.781450832302,0,2018.0,215.0,1109.0,2567400.0
martin modern,martin place,condominium,3.0,2.0,9,central region,river valley,institution hill,1.2934966639073,103.8381049101,0,2021.0,450.0,1012.0,3289000.0
pullman residences newton,18 dunearn road ,apartment,1.0,1.0,11,central region,novena,moulmein,1.31467262956125,103.839010845653,1,1930.0,340.0,463.0,1475100.0
treasure at tampines,tampines lane,condominium,5.0,2.0,18,east region,tampines,tampines east,1.34503342838494,103.946749425598,0,1930.0,2203.0,1722.0,2124100.0
fernvale link,fernvale link,condominium,3.0,3.0,28,north-east region,sengkang,fernvale,1.39038045690064,103.878593470104,0,2015.0,521.0,1194.0,1317800.0
freesia woods,sunset way,condominium,3.0,2.0,21,west region,clementi,sunset way,1.32381983979324,103.766878388655,1,2003.0,129.0,1226.0,2035000.0
shanghai one,1 shanghai road ,apartment,1.0,1.0,10,central region,tanglin,chatsworth,1.2948480383694,103.827548220413,1,2007.0,52.0,560.0,1155000.0
coastline residences,7 amber road ,apartment,2.0,2.0,15,central region,marine parade,marine parade,1.29897474563265,103.899038172699,1,1945.0,144.0,743.0,2154900.0
the florence residences,83 hougang avenue 2 ,apartment,5.0,3.0,19,north-east region,hougang,kovan,1.36681844700677,103.887001340746,0,1930.0,1410.0,1281.0,2200000.0
carabelle,51 west coast way ,condominium,3.0,2.0,5,west region,clementi,west coast,1.3180254812967,103.756289455625,1,2009.0,338.0,947.0,1496000.0
city studios,race course lane,apartment,1.0,1.0,8,central region,rochor,farrer park,1.31012233674354,103.852814779279,1,2013.0,25.0,494.0,867900.0
parkwood residences,208 yio chu kang road ,apartment,5.0,4.0,19,north-east region,hougang,kovan,1.36652661429401,103.875828348014,0,1930.0,18.0,1905.0,3109700.0
midtown modern,tan quee lan street,apartment,2.0,1.0,7,central region,downtown core,bugis,1.29850522262382,103.857088439281,0,1930.0,558.0,635.0,2200000.0
mooi residences,holland road,apartment,3.0,2.0,10,central region,bukit timah,leedon park,1.31257730599051,103.79835625246,1,1930.0,24.0,990.0,2813800.0
bedok residences,bedok north drive,apartment,3.0,3.0,16,east region,bedok,bedok north,1.3249877767463898,103.928612366312,0,2015.0,583.0,1216.0,1958000.0
shunfu road,shunfu road,condominium,2.0,2.0,20,central region,bishan,upper thomson,1.35200745401591,103.837031862103,0,2015.0,1206.0,764.0,1427800.0
one shenton,1 shenton way ,apartment,5.0,5.0,1,central region,downtown core,cecil,1.27929478959373,103.850552555075,0,2011.0,341.0,9138.0,35200000.0
citylights,jellicoe road,condominium,3.0,3.0,8,central region,kallang,lavender,1.3088957673265802,103.863068603426,0,2007.0,600.0,1841.0,3630000.0
the gazania,how sun drive,condominium,2.0,2.0,19,north-east region,serangoon,upper paya lebar,1.34478691681927,103.878778848783,1,1945.0,250.0,678.0,1650000.0
marina one residences,23 marina way ,apartment,3.0,3.0,1,central region,downtown core,central subzone,1.2772242561628302,103.853694940241,0,2017.0,1042.0,1593.0,3920400.0
parc centennial,kampong java road,apartment,3.0,3.0,9,central region,novena,moulmein,1.31317508970172,103.84379589573,1,2011.0,51.0,1249.0,2167000.0
floraville,cactus road,apartment,2.0,2.0,28,north-east region,ang mo kio,yio chu kang east,1.39185235684708,103.851179877786,1,2017.0,50.0,689.0,1094500.0
bijou,2 jalan mat jambol ,apartment,2.0,2.0,5,central region,queenstown,pasir panjang 2,1.27685386379359,103.791742171785,1,2018.0,120.0,753.0,1813400.0
kent ridge hill residences,south buona vista road,apartment,5.0,5.0,5,central region,queenstown,pasir panjang 2,1.28082397634044,103.790728746282,0,1930.0,548.0,2067.0,3553000.0
nouvel 18,16 anderson road ,condominium,3.0,2.0,10,central region,newton,orange grove,1.31083945362027,103.828325367461,1,2014.0,156.0,1582.0,5368000.0
la mariposa,la mariposa,apartment,4.0,4.0,15,central region,geylang,geylang east,1.31270763418218,103.904671198022,1,2021.0,17.0,1335.0,2564100.0
the line @ tanjong rhu,tanjong rhu road,condominium,1.0,1.0,15,central region,kallang,tanjong rhu,1.2984373006061298,103.884408021083,1,2016.0,130.0,829.0,1974500.0
treasure at tampines,57 tampines lane ,condominium,3.0,2.0,18,east region,tampines,tampines east,1.3442593228979498,103.949073592994,0,1930.0,2203.0,915.0,1613700.0
j gateway,gateway drive,condominium,1.0,1.0,22,west region,jurong east,jurong gateway,1.33555731797921,103.742416815373,0,2016.0,738.0,506.0,1045000.0
amber skye,amber road,apartment,2.0,7.0,15,central region,marine parade,marine parade,1.29962978981916,103.898114344383,1,2017.0,109.0,5059.0,8964000.0
park nova,tomlinson road,apartment,2.0,5.0,10,central region,orchard,tanglin,1.3036862120666202,103.825629004285,1,1930.0,54.0,1432.0,6443800.0
kovan residences,kovan road,condominium,4.0,4.0,19,north-east region,hougang,kovan,1.36156729111649,103.885363752044,0,2011.0,521.0,3422.0,3608000.0
river place,havelock road,condominium,1.0,1.0,3,central region,singapore river,robertson quay,1.2896097164683,103.841276389346,0,1999.0,492.0,752.0,1320000.0
the florence residences,hougang avenue 2,apartment,3.0,3.0,19,north-east region,hougang,kovan,1.36721571020099,103.887069987475,0,1930.0,1410.0,1098.0,1893100.0
the reef at kings dock,harbourfront avenue,condominium,2.0,2.0,4,central region,bukit merah,maritime square,1.26493085106915,103.81714789225,0,1960.0,429.0,893.0,2390300.0
nv residences,pasir ris grove,condominium,3.0,2.0,18,east region,pasir ris,pasir ris central,1.37141634507612,103.943621458548,0,2013.0,642.0,1109.0,1408000.0
thomson impressions,1 lorong puntong ,apartment,1.0,1.0,20,central region,bishan,upper thomson,1.35982507427437,103.829708863142,0,2018.0,288.0,463.0,888800.0
langston ville,15 kim yam road ,apartment,3.0,2.0,9,central region,river valley,institution hill,1.2949260365118995,103.838947184938,1,2000.0,54.0,946.0,1969000.0
nouvel 18,anderson road,condominium,2.0,2.0,10,central region,newton,orange grove,1.31083945362027,103.828325367461,1,2014.0,156.0,1335.0,3927000.0
midtown modern,tan quee lan street,apartment,3.0,1.0,7,central region,downtown core,bugis,1.29850522262382,103.857088439281,0,1930.0,558.0,603.0,1595000.0
jadescape,16 shunfu road ,condominium,1.0,1.0,20,central region,bishan,upper thomson,1.35181485383899,103.838298222332,0,2015.0,1206.0,527.0,1089000.0
belle vue residences,oxley walk,condominium,5.0,3.0,9,central region,river valley,oxley,1.29659578899507,103.842393872828,1,2010.0,176.0,2303.0,6380000.0
fernvale road,40 fernvale road ,condominium,2.0,1.0,28,north-east region,sengkang,fernvale,1.39731815581938,103.875635154729,0,2016.0,496.0,581.0,968000.0
peak residence,333 thomson road ,condominium,1.0,1.0,11,central region,novena,malcolm,1.32534460429599,103.840724426138,1,2013.0,90.0,539.0,1372800.0
affinity at serangoon,22 serangoon north avenue 1 ,apartment,5.0,3.0,19,north-east region,serangoon,serangoon garden,1.3659402631259,103.872779450275,0,2015.0,1052.0,1410.0,2340800.0
gem residences,3 lorong 5 toa payoh ,condominium,3.0,2.0,12,central region,toa payoh,boon teck,1.33933820986766,103.851224736347,0,2019.0,578.0,947.0,1815000.0
parc clematis,6a jalan lempeng ,apartment,3.0,3.0,5,west region,clementi,faber,1.31824215890806,103.760505326326,0,1930.0,1468.0,1249.0,2532200.0
the tre ver,potong pasir avenue 1,condominium,2.0,2.0,13,central region,toa payoh,potong pasir,1.3365299408777,103.865336019055,0,2012.0,729.0,743.0,1540000.0
kingsford waterbay,66 upper serangoon view ,apartment,3.0,2.0,19,north-east region,hougang,kangkar,1.37352585316481,103.902708276111,0,2018.0,1165.0,850.0,1394800.0
myra,meyappa chettiar road,apartment,4.0,4.0,13,central region,toa payoh,potong pasir,1.3305625038871298,103.86788498045,1,1930.0,85.0,1324.0,3214200.0
the sail @ marina bay,marina boulevard,apartment,2.0,2.0,1,central region,downtown core,central subzone,1.28076943504219,103.852658562152,0,2008.0,1111.0,882.0,2145000.0
peak residence,thomson road,condominium,3.0,3.0,11,central region,novena,malcolm,1.32534460429599,103.840724426138,1,2013.0,90.0,1088.0,3077700.0
reflections at keppel bay,keppel bay view,condominium,6.0,6.0,4,central region,bukit merah,maritime square,1.26816216653267,103.814379904552,0,2011.0,1129.0,6835.0,15400000.0
phoenix residences,phoenix avenue,apartment,3.0,4.0,23,west region,bukit batok,gombak,1.37525459469413,103.757531008357,0,2005.0,74.0,1367.0,2076800.0
lumiere,mistri road,apartment,1.0,1.0,2,central region,downtown core,tanjong pagar,1.27426245685335,103.846025087372,0,2010.0,168.0,509.0,996800.0
marina one residences,23 marina way ,apartment,2.0,2.0,1,central region,downtown core,central subzone,1.2772242561628302,103.853694940241,0,2017.0,1042.0,1119.0,3190000.0
the coast at sentosa cove,278 ocean drive ,condominium,4.0,4.0,4,central region,southern islands,sentosa,1.2452888363493102,103.843545656527,0,2009.0,249.0,3477.0,6747500.0
the antares,19 mattar road ,apartment,3.0,2.0,14,central region,geylang,macpherson,1.32550014170954,103.882891463503,0,2014.0,265.0,883.0,1691800.0
north park residences,15 yishun central 1 ,apartment,2.0,1.0,27,north region,yishun,yishun central,1.42866319767121,103.835828704052,0,2018.0,920.0,549.0,1045000.0
skysuites 17,17 jalan rajah ,apartment,2.0,2.0,12,central region,novena,balestier,1.32761026033247,103.847605847436,1,2014.0,115.0,614.0,1210000.0
corals at keppel bay,keppel bay drive,condominium,2.0,2.0,4,central region,bukit merah,maritime square,1.26489010829928,103.816454088109,0,2016.0,366.0,969.0,2266000.0
the m,middle road,apartment,2.0,2.0,7,central region,downtown core,bugis,1.29751049338808,103.856297302855,0,1930.0,522.0,752.0,2197800.0
normanton park,normanton park,apartment,4.0,2.0,5,central region,queenstown,kent ridge,1.28749505390492,103.793610594541,0,1930.0,1862.0,1195.0,2289100.0
pullman residences newton,dunearn road,apartment,4.0,4.0,11,central region,novena,moulmein,1.31467262956125,103.839010845653,1,1930.0,340.0,1378.0,4389000.0
beach road,302 beach road ,condominium,1.0,1.0,7,central region,downtown core,nicoll,1.30026689906653,103.861865589801,0,2014.0,360.0,818.0,1815000.0
meyerhouse,128 meyer road ,condominium,4.0,4.0,15,central region,marine parade,mountbatten,1.2983271637053,103.893447598793,1,2021.0,56.0,2820.0,7889200.0
jewel @ buangkok,89 compassvale bow ,condominium,1.0,1.0,19,north-east region,sengkang,compassvale,1.38050775421389,103.89205359585,0,2016.0,616.0,474.0,867900.0
katong regency,17 tanjong katong road ,apartment,2.0,1.0,15,central region,geylang,geylang east,1.3143704796903002,103.894529014229,1,2015.0,244.0,581.0,1265000.0
the berth by the cove,204 ocean drive ,condominium,3.0,3.0,4,central region,southern islands,sentosa,1.2491880047863502,103.846314134924,0,2006.0,200.0,1970.0,3850000.0
parc riviera,west coast vale,condominium,4.0,3.0,5,west region,clementi,west coast,1.32081769238494,103.752667309254,0,2019.0,752.0,1152.0,1750100.0
silversea,marine parade road,condominium,4.0,5.0,15,central region,marine parade,marine parade,1.29955807704199,103.901523915554,0,2014.0,383.0,3475.0,12430000.0
dairy farm residences,8 dairy farm lane ,apartment,3.0,2.0,23,west region,bukit panjang,dairy farm,1.36681214110944,103.774500573666,0,1930.0,460.0,936.0,1564500.0
onze @ tanjong pagar,11 kee seng street ,apartment,3.0,2.0,2,central region,outram,chinatown,1.27484974836861,103.842184815618,1,2017.0,56.0,1044.0,2745600.0
flower road,flower road,condominium,4.0,3.0,19,central region,southern islands,sentosa,1.2541521366968,103.818780191224,1,1998.0,548.0,1097.0,1966800.0
the sail @ marina bay,marina boulevard,apartment,1.0,1.0,1,central region,downtown core,central subzone,1.28076943504219,103.852658562152,0,2008.0,1111.0,667.0,1595000.0
urban treasures,jalan eunos,condominium,2.0,1.0,14,east region,bedok,kaki bukit,1.32936720206385,103.905791323853,1,1930.0,237.0,635.0,1325600.0
normanton park,normanton park,apartment,3.0,2.0,5,central region,queenstown,kent ridge,1.28749505390492,103.793610594541,0,1930.0,1862.0,829.0,1696200.0
parc clematis,jalan lempeng,apartment,6.0,5.0,5,west region,clementi,faber,1.31710645052527,103.758947292195,0,1930.0,1468.0,1711.0,2959000.0
hougang avenue 7,hougang avenue 7,condominium,2.0,2.0,19,north-east region,hougang,lorong ah soo,1.35370313485788,103.890680820842,0,2000.0,1472.0,1410.0,2129600.0
jalan lempeng,jalan lempeng,condominium,5.0,5.0,5,west region,clementi,faber,1.31919648268012,103.761179518517,0,1930.0,1468.0,3832.0,4584800.0
eco,277 bedok south avenue 3 ,condominium,1.0,1.0,16,east region,bedok,bedok south,1.3232671784623202,103.945036905702,0,2017.0,748.0,635.0,1210000.0
van holland,holland road,condominium,2.0,1.0,10,central region,bukit timah,leedon park,1.31264956890401,103.794954717761,1,1985.0,69.0,657.0,2136800.0
canninghill piers,1 clarke quay ,apartment,3.0,2.0,6,central region,singapore river,clarke quay,1.2914248297393,103.844383363038,0,1970.0,696.0,1259.0,3511200.0
marina one residences,marina way,apartment,1.0,1.0,1,central region,downtown core,central subzone,1.27671498507474,103.853326932298,0,2017.0,1042.0,657.0,1846500.0
mooi residences,139 holland road ,apartment,4.0,3.0,10,central region,bukit timah,leedon park,1.31257730599051,103.79835625246,1,1930.0,24.0,1281.0,3510000.0
forett@bukit timah,38b toh tuck road ,apartment,1.0,1.0,21,central region,bukit timah,anak bukit,1.34013731823673,103.768787031514,1,1930.0,258.0,474.0,1103300.0
margaret ville,margaret drive,apartment,3.0,2.0,3,central region,queenstown,margaret drive,1.2995172080842,103.802806930224,0,2021.0,309.0,915.0,2145000.0
beach road,beach road,condominium,4.0,3.0,7,central region,downtown core,city hall,1.29492392757237,103.854314998464,0,2016.0,311.0,2239.0,8580000.0
the crest,prince charles crescent,condominium,3.0,2.0,3,central region,bukit merah,alexandra north,1.29269478978815,103.820411467009,0,2017.0,469.0,1173.0,2948000.0
sims urban oasis,sims drive,condominium,1.0,1.0,14,central region,geylang,aljunied,1.3191895872053898,103.881380824314,0,2017.0,1024.0,463.0,858000.0
the lilium,31 how sun road ,condominium,3.0,2.0,19,north-east region,serangoon,upper paya lebar,1.34579628007765,103.880801954328,1,2021.0,80.0,1087.0,2468400.0
the lilium,31 how sun road ,condominium,4.0,3.0,19,north-east region,serangoon,upper paya lebar,1.34579628007765,103.880801954328,1,2021.0,80.0,1291.0,2717000.0
the interweave,21 kim keat road ,apartment,1.0,1.0,12,central region,novena,balestier,1.32538080526177,103.853111878947,1,2014.0,169.0,377.0,737000.0
marina one residences,23 marina way ,apartment,5.0,6.0,1,central region,downtown core,central subzone,1.2772242561628302,103.853694940241,0,2017.0,1042.0,6469.0,20898400.0
10 evelyn,evelyn road,apartment,3.0,2.0,11,central region,novena,moulmein,1.31615491830399,103.840533848314,1,2020.0,56.0,1410.0,3568400.0
viva vista,south buona vista road,apartment,3.0,1.0,5,central region,queenstown,pasir panjang 1,1.27980322314972,103.78590960328,1,2014.0,144.0,936.0,1210000.0
uptown @ farrer,perumal road,apartment,3.0,3.0,8,central region,kallang,lavender,1.3129443237366598,103.855634735092,0,2021.0,116.0,1292.0,2296800.0
meyerhouse,meyer road,condominium,4.0,5.0,15,central region,marine parade,mountbatten,1.2983271637053,103.893447598793,1,2021.0,56.0,2820.0,7717600.0
waterfront waves,bedok reservoir road,condominium,2.0,2.0,16,east region,bedok,bedok reservoir,1.33822676719573,103.929909522243,0,2011.0,405.0,969.0,1210000.0
h2o residences,32 fernvale link ,condominium,3.0,2.0,28,north-east region,sengkang,fernvale,1.3928256190817905,103.880210053019,0,2015.0,521.0,883.0,1031800.0
euphony gardens,13 jalan mata ayer ,condominium,3.0,3.0,27,north region,mandai,mandai estate,1.4256938391117298,103.82449333774,0,2001.0,304.0,1227.0,1188000.0
forestville,woodlands drive 16,executive condominium,4.0,3.0,25,north region,woodlands,woodlands south,1.43232888028606,103.799984842559,0,2016.0,653.0,1722.0,1672000.0
juniper hill,39 ewe boon road ,apartment,2.0,1.0,10,central region,tanglin,nassim,1.3164820339781698,103.829897153451,1,1930.0,115.0,581.0,1815000.0
reflections at keppel bay,1 keppel bay view ,condominium,3.0,4.0,4,central region,bukit merah,maritime square,1.26816216653267,103.814379904552,0,2011.0,1129.0,1841.0,3960000.0
trilive,tampines road,condominium,4.0,3.0,19,north-east region,hougang,lorong ah soo,1.3617773209101,103.891667519955,1,2018.0,222.0,1163.0,2090000.0
irwell hill residences,irwell hill,apartment,3.0,2.0,9,central region,river valley,leonie hill,1.2972590729906102,103.831023686317,0,1976.0,540.0,861.0,2591600.0
the greenwich,seletar road,condominium,1.0,1.0,28,north-east region,serangoon,seletar hills,1.38718841691871,103.869337214926,0,2014.0,319.0,603.0,847000.0
penrose,20 sims drive ,apartment,1.0,1.0,14,central region,geylang,aljunied,1.31941278190941,103.8794959606,0,1960.0,566.0,484.0,1113200.0
15 holland hill,holland hill,apartment,2.0,3.0,10,central region,bukit timah,leedon park,1.30964956283877,103.800870514368,1,1930.0,57.0,1292.0,4311700.0
hyll on holland,holland road,condominium,3.0,2.0,10,central region,bukit timah,leedon park,1.31049636845377,103.802392230378,1,1985.0,319.0,936.0,2339300.0
meyerhouse,meyer road,condominium,3.0,4.0,15,central region,marine parade,mountbatten,1.2983271637053,103.893447598793,1,2021.0,56.0,1861.0,5280000.0
midwood,hillview rise,condominium,2.0,1.0,23,west region,bukit batok,hillview,1.36286208839026,103.763433915546,0,1930.0,564.0,635.0,1103300.0
reflections at keppel bay,keppel bay view,condominium,2.0,2.0,4,central region,bukit merah,maritime square,1.26816216653267,103.814379904552,0,2011.0,1129.0,958.0,1903000.0
pullman residences newton,dunearn road,condominium,5.0,1.0,11,central region,novena,moulmein,1.31467262956125,103.839010845653,1,1930.0,340.0,1163.0,3325300.0
the lilium,how sun road,condominium,2.0,2.0,19,north-east region,serangoon,upper paya lebar,1.34553420682452,103.880737418528,1,2021.0,80.0,699.0,1732500.0
penrose,sims drive,apartment,4.0,3.0,14,central region,geylang,aljunied,1.31941278190941,103.8794959606,0,1960.0,566.0,1184.0,2118600.0
beach road,beach road,condominium,5.0,5.0,7,central region,downtown core,city hall,1.29492392757237,103.854314998464,0,2016.0,311.0,6728.0,22880000.0
forett@bukit timah,32a toh tuck road ,apartment,3.0,2.0,21,central region,bukit timah,anak bukit,1.33990856202052,103.767855539232,1,1930.0,258.0,764.0,1730300.0
nouvel 18,anderson road,condominium,4.0,4.0,10,central region,newton,orange grove,1.31083945362027,103.828325367461,1,2014.0,156.0,2476.0,9539200.0
the lilium,31  how sun road ,condominium,4.0,4.0,19,north-east region,serangoon,upper paya lebar,1.34579628007765,103.880801954328,1,2021.0,80.0,1291.0,2949400.0
one-north residences,one-north gateway,apartment,5.0,5.0,5,central region,queenstown,one north,1.30220440131525,103.789907530412,0,2009.0,405.0,3100.0,4290000.0
sturdee residences,beatty road,condominium,2.0,2.0,8,central region,kallang,lavender,1.31291695250751,103.859047068258,0,2019.0,305.0,721.0,1408000.0
nouvel 18,18 anderson road ,condominium,4.0,5.0,10,central region,newton,orange grove,1.31083945362027,103.828325367461,1,2014.0,156.0,2476.0,8395200.0
marina one residences,23 marina way ,apartment,1.0,1.0,1,central region,downtown core,central subzone,1.2772242561628302,103.853694940241,0,2017.0,1042.0,678.0,1691800.0
verticus,jalan kemaman,apartment,2.0,1.0,12,central region,novena,balestier,1.3263563813243202,103.850660162189,1,1960.0,162.0,635.0,1368400.0
carissa park condominium,4 flora drive ,condominium,2.0,2.0,17,east region,pasir ris,flora drive,1.3588096501532798,103.962752963686,1,2001.0,528.0,1033.0,1100000.0
casa merah,56 casa merah ,apartment,3.0,3.0,16,east region,bedok,bedok north,1.32957593082653,103.944984901014,0,2009.0,556.0,1227.0,1760000.0
palm galleria,78 lorong k telok kurau ,apartment,3.0,2.0,15,east region,bedok,frankel,1.3127125877587902,103.912125239337,1,2010.0,40.0,2529.0,2948000.0
hedges park condominium,73 flora drive ,condominium,4.0,3.0,17,east region,pasir ris,flora drive,1.35533104364701,103.966790253495,0,2015.0,501.0,1539.0,1815000.0
singa hills,jalan singa,apartment,3.0,2.0,14,east region,bedok,kaki bukit,1.33013262911561,103.908284993545,1,2016.0,58.0,872.0,1504800.0
nouvel 18,18 anderson road ,condominium,2.0,2.0,10,central region,newton,orange grove,1.31083945362027,103.828325367461,1,2014.0,156.0,1539.0,5060200.0
the sail @ marina bay,marina boulevard,apartment,3.0,3.0,1,central region,downtown core,central subzone,1.28076943504219,103.852658562152,0,2008.0,1111.0,1313.0,2726800.0
the sail @ marina bay,6 marina boulevard ,apartment,4.0,3.0,1,central region,downtown core,central subzone,1.28076943504219,103.852658562152,0,2008.0,1111.0,1389.0,3608000.0
symphony suites,13 yishun close ,condominium,3.0,2.0,27,north region,yishun,yishun east,1.4353772615255902,103.844165552611,0,2018.0,660.0,797.0,1042800.0
the woodleigh residences,13 bidadari park drive ,apartment,4.0,3.0,13,central region,toa payoh,bidadari,1.33821440339182,103.87208996414302,0,1960.0,667.0,1259.0,2897400.0
sims urban oasis,8 sims drive ,condominium,1.0,1.0,14,central region,geylang,aljunied,1.31953163858398,103.880542167502,0,2017.0,1024.0,463.0,891000.0
martin modern,8 martin place ,condominium,3.0,2.0,9,central region,river valley,institution hill,1.2934966639073,103.8381049101,0,2021.0,450.0,1087.0,3396800.0
the lincoln modern,lincoln road,apartment,3.0,3.0,11,central region,novena,moulmein,1.3153231258555702,103.843055868846,1,2003.0,56.0,1378.0,2695000.0
the marq on paterson hill,8a paterson hill ,condominium,4.0,4.0,9,central region,river valley,one tree hill,1.3003054805743202,103.828952498263,1,2011.0,66.0,3089.0,19800000.0
artra,10 alexandra view ,apartment,3.0,2.0,3,central region,bukit merah,redhill,1.29003067053998,103.817185273903,0,2021.0,400.0,786.0,1781700.0
the rochester residences,rochester drive,apartment,1.0,1.0,5,central region,queenstown,one north,1.30521073390523,103.788340566447,0,2011.0,366.0,1026.0,1672000.0
corals at keppel bay,1 keppel bay drive ,condominium,2.0,2.0,4,central region,bukit merah,maritime square,1.26489010829928,103.816454088109,0,2016.0,366.0,893.0,2187900.0
parc canberra,1 canberra walk ,executive condominium,4.0,2.0,27,north region,sembawang,sembawang east,1.4474705918037098,103.829031004211,0,1960.0,496.0,947.0,1128600.0
forett@bukit timah,toh tuck road,apartment,5.0,3.0,21,central region,bukit timah,anak bukit,1.33990853882395,103.767523150763,1,1930.0,216.0,1884.0,4450600.0
the atelier,2 makeway avenue ,apartment,4.0,3.0,9,central region,novena,moulmein,1.31283039144925,103.841544287772,1,1930.0,120.0,1496.0,4936800.0
camelodge,upper east coast road,apartment,4.0,3.0,15,east region,bedok,frankel,1.31316952595243,103.92930608172,1,1996.0,12.0,1690.0,2255000.0
citylights,jellicoe road,condominium,3.0,3.0,8,central region,kallang,lavender,1.3088957673265802,103.863068603426,0,2007.0,600.0,1442.0,2750000.0
the avenir,river valley close,condominium,3.0,3.0,9,central region,river valley,institution hill,1.29474075956073,103.836583709306,1,2014.0,376.0,1528.0,4802600.0
midtown modern,tan quee lan street,apartment,3.0,2.0,7,central region,downtown core,bugis,1.29850522262382,103.857088439281,0,1930.0,558.0,904.0,2636700.0
the woodleigh residences,15 bidadari park drive ,apartment,3.0,2.0,13,central region,toa payoh,bidadari,1.33817688849554,103.871853473477,0,1960.0,667.0,958.0,2200000.0
livia,pasir ris grove,condominium,3.0,3.0,18,east region,pasir ris,pasir ris central,1.37305703366527,103.942459094386,0,2011.0,724.0,1410.0,1637800.0
hyll on holland,holland road,condominium,2.0,1.0,10,central region,bukit timah,leedon park,1.31049636845377,103.802392230378,1,1985.0,319.0,614.0,1650000.0
the tessarina,wilby road,condominium,4.0,5.0,10,central region,bukit timah,holland road,1.33270639181925,103.789363841721,1,2003.0,443.0,3358.0,6138000.0
normanton park,59 normanton park ,apartment,3.0,3.0,5,central region,queenstown,kent ridge,1.28702848318685,103.791616124392,0,1930.0,1862.0,1066.0,2068000.0
neu at novena,27 moulmein rise ,apartment,2.0,2.0,11,central region,novena,moulmein,1.31961486592659,103.845969245127,1,1799.0,87.0,549.0,1815000.0
lake grande,10 jurong lake link ,condominium,2.0,2.0,22,west region,jurong west,hong kah,1.34594578766091,103.724619105198,0,2019.0,710.0,721.0,1342000.0
sengkang grand residences,compassvale bow,apartment,2.0,2.0,19,north-east region,sengkang,compassvale,1.3823880275650702,103.892136541911,0,2016.0,680.0,764.0,1588500.0
m5,jalan mutiara,apartment,1.0,1.0,10,central region,tanglin,chatsworth,1.2956665859268002,103.82885975081,1,2018.0,33.0,473.0,1177900.0
central imperial,3 lorong 14 geylang ,apartment,2.0,2.0,14,central region,geylang,aljunied,1.31194266781347,103.879213970964,1,2014.0,63.0,603.0,844800.0
parc komo,upper changi road north,apartment,4.0,2.0,17,east region,pasir ris,flora drive,1.36106278251276,103.969953491394,1,1930.0,276.0,1292.0,2145000.0
the hillier,6 hillview rise ,apartment,2.0,1.0,23,west region,bukit batok,hillview,1.3630338944268603,103.764128549082,0,2016.0,528.0,624.0,968000.0
hyll on holland,87 holland road ,condominium,2.0,2.0,10,central region,bukit timah,leedon park,1.31049636845377,103.802392230378,1,1985.0,319.0,657.0,1911300.0
the m,middle road,apartment,1.0,1.0,7,central region,downtown core,bugis,1.29751049338808,103.856297302855,0,1930.0,522.0,527.0,1591700.0
penrose,20 sims drive ,apartment,4.0,3.0,14,central region,geylang,aljunied,1.31941278190941,103.8794959606,0,1960.0,566.0,1184.0,2113100.0
ikigai,shrewsbury road,apartment,4.0,3.0,11,central region,novena,moulmein,1.31790382404123,103.847428354915,1,2008.0,16.0,1453.0,4972000.0
grange 1866,grange road,apartment,1.0,1.0,10,central region,river valley,one tree hill,1.2998826225442,103.828975333714,1,2013.0,60.0,527.0,1540000.0
the alps residences,tampines street 86,condominium,1.0,1.0,18,east region,tampines,tampines west,1.3550558263709598,103.929921925596,0,2019.0,626.0,441.0,825000.0
pasir ris heights,pasir ris heights,condominium,3.0,2.0,18,east region,pasir ris,pasir ris west,1.38113234482257,103.942323245402,0,2017.0,463.0,1033.0,1485000.0
horizon residences,41 pasir panjang hill ,condominium,3.0,2.0,5,central region,queenstown,pasir panjang 1,1.28217914161626,103.78408271893,1,2014.0,72.0,1356.0,2975600.0
highline residences,1 kim tian road ,condominium,2.0,1.0,3,central region,bukit merah,tiong bahru,1.28401388660814,103.829756642021,0,2018.0,500.0,700.0,1870000.0
hyll on holland,99 holland road ,condominium,2.0,2.0,10,central region,bukit timah,leedon park,1.31072731348367,103.80192086617,1,1985.0,319.0,710.0,1915700.0
the florence residences,hougang avenue 2,apartment,2.0,2.0,19,north-east region,hougang,kovan,1.36721571020099,103.887069987475,0,1930.0,1410.0,667.0,1320000.0
marina one residences,23 marina way ,apartment,4.0,3.0,1,central region,downtown core,central subzone,1.2772242561628302,103.853694940241,0,2017.0,1042.0,2034.0,7004800.0
the tapestry,53 tampines street 86 ,condominium,2.0,1.0,18,east region,tampines,tampines west,1.35305596283245,103.92821347133,0,2021.0,861.0,689.0,1210000.0
concourse skyline,296 beach road ,apartment,5.0,4.0,7,central region,downtown core,nicoll,1.30070393376469,103.86186108134198,0,2014.0,360.0,2271.0,5384500.0
normanton park,normanton park,apartment,3.0,2.0,5,central region,queenstown,kent ridge,1.28749505390492,103.793610594541,0,1930.0,1862.0,1098.0,1958000.0
verdale,10 de souza avenue ,apartment,1.0,1.0,21,central region,bukit timah,anak bukit,1.3450158758703998,103.769771109783,0,1960.0,258.0,474.0,870100.0
midtown residences,upper serangoon road,apartment,1.0,1.0,19,north-east region,hougang,hougang central,1.37073588285709,103.895120805047,0,2016.0,160.0,441.0,770000.0
the minton,hougang street 11,condominium,2.0,2.0,19,north-east region,hougang,lorong ah soo,1.3513904432788,103.881242080921,0,2013.0,1145.0,980.0,1342000.0
reflections at keppel bay,33 keppel bay view ,condominium,3.0,2.0,4,central region,bukit merah,maritime square,1.26714499289003,103.811002300666,0,2011.0,1129.0,1485.0,3762000.0
river place,havelock road,condominium,1.0,1.0,3,central region,singapore river,robertson quay,1.2896097164683,103.841276389346,0,1999.0,492.0,752.0,1320000.0
normanton park,normanton park,apartment,1.0,1.0,5,central region,queenstown,kent ridge,1.28749505390492,103.793610594541,0,1930.0,1862.0,527.0,1009300.0
the florence residences,hougang avenue 2,apartment,3.0,2.0,19,north-east region,hougang,kovan,1.36721571020099,103.887069987475,0,1930.0,1410.0,936.0,1631300.0
normanton park,49 normanton park ,apartment,1.0,1.0,5,central region,queenstown,kent ridge,1.2863091960681798,103.792702828649,0,1930.0,1862.0,527.0,1092100.0
dairy farm residences,dairy farm lane,apartment,2.0,2.0,23,west region,bukit panjang,dairy farm,1.3655707838852,103.77504908361,0,1930.0,460.0,721.0,1308100.0
centra heights,455 sims avenue ,apartment,1.0,1.0,14,central region,geylang,aljunied,1.3162939776288898,103.88657418395,1,2014.0,90.0,463.0,823900.0
the trilinq,28 jalan lempeng ,condominium,1.0,1.0,5,west region,clementi,faber,1.3182475031588703,103.762081253712,0,2017.0,755.0,538.0,990000.0
yishun close,23 yishun close ,condominium,4.0,3.0,27,north region,yishun,yishun east,1.4357360881648502,103.844154010911,0,2018.0,660.0,1023.0,1320000.0
normanton park,57 normanton park ,apartment,2.0,1.0,5,central region,queenstown,kent ridge,1.28670074148056,103.790979496973,0,1930.0,1862.0,657.0,1298000.0
central green condominium,jalan membina,condominium,3.0,3.0,3,central region,bukit merah,tiong bahru station,1.28519576156367,103.827677219577,0,1995.0,412.0,1292.0,2090000.0
forett@bukit timah,36a toh tuck road ,apartment,1.0,1.0,21,central region,bukit timah,anak bukit,1.34103498884689,103.769117659528,1,1930.0,258.0,474.0,1038400.0
perfect ten,323 bukit timah road ,apartment,3.0,3.0,10,central region,tanglin,nassim,1.31722941395448,103.832485988891,1,2006.5,230.0,1227.0,4375900.0
hillview 128,128 hillview avenue ,apartment,3.0,3.0,23,west region,bukit batok,hillview,1.35707968895277,103.76116513308,1,2002.0,90.0,1044.0,1342000.0
the lumos,9 leonie hill ,apartment,4.0,4.0,9,central region,river valley,leonie hill,1.29906600768056,103.832068608699,1,2011.0,53.0,5929.0,14180100.0
forestville,26 woodlands drive 16 ,executive condominium,4.0,3.0,25,north region,woodlands,woodlands south,1.4319236590045905,103.799645241496,0,2016.0,653.0,1195.0,1320000.0
sturdee residences,beatty road,condominium,2.0,1.0,8,central region,kallang,lavender,1.31291695250751,103.859047068258,0,2019.0,305.0,570.0,1210000.0
parc clematis,6a jalan lempeng ,apartment,4.0,4.0,5,west region,clementi,faber,1.31824215890806,103.760505326326,0,1930.0,1468.0,1464.0,2893000.0
sengkang grand residences,86 compassvale bow ,apartment,4.0,3.0,19,north-east region,sengkang,compassvale,1.3830900986342,103.892436265639,0,2015.0,680.0,1324.0,2559000.0
mori,guillemard road,apartment,2.0,2.0,14,central region,geylang,aljunied,1.31131219787605,103.882972095616,1,2017.0,137.0,710.0,1375000.0
fourth avenue residences,fourth avenue,apartment,2.0,2.0,10,central region,bukit timah,coronation road,1.3297125646108705,103.796996065203,0,1930.0,476.0,710.0,1924300.0
tampines street 11,tampines street 11,condominium,3.0,2.0,18,east region,tampines,tampines east,1.3453195492621202,103.945384662025,0,2014.0,679.0,1033.0,1736900.0
amber park,amber gardens,condominium,4.0,3.0,15,central region,marine parade,marine parade,1.3004682373456,103.899919640176,1,1986.0,592.0,1582.0,4185500.0
seahill,west coast crescent,condominium,4.0,3.0,5,west region,clementi,clementi west,1.29884698729343,103.764917692526,0,2016.0,478.0,3649.0,4123000.0
high park residences,57 fernvale road ,apartment,2.0,2.0,28,north-east region,sengkang,fernvale,1.3966868084946,103.874305080444,0,2019.0,1390.0,926.0,1210000.0
sims urban oasis,sims drive,condominium,2.0,1.0,14,central region,geylang,aljunied,1.3191895872053898,103.881380824314,0,2017.0,1024.0,667.0,1299000.0
marina one residences,21 marina way ,apartment,2.0,2.0,1,central region,downtown core,central subzone,1.27671498507474,103.853326932298,0,2017.0,1042.0,1119.0,2640000.0
nouvel 18,anderson road,condominium,3.0,3.0,10,central region,newton,orange grove,1.31083945362027,103.828325367461,1,2014.0,156.0,1765.0,5808000.0
marina one residences,23 marina way ,apartment,1.0,1.0,1,central region,downtown core,central subzone,1.2772242561628302,103.853694940241,0,2017.0,1042.0,732.0,1846500.0
sloane residences,17 balmoral road ,apartment,4.0,4.0,10,central region,tanglin,nassim,1.31568887219293,103.832317948898,1,2021.0,52.0,1496.0,4820200.0
verdale,14 de souza avenue ,apartment,4.0,4.0,21,central region,bukit timah,anak bukit,1.34520506702454,103.769270370304,0,1960.0,258.0,1410.0,2707400.0
26 newton,26 newton road ,apartment,2.0,2.0,11,central region,novena,moulmein,1.3156928164723998,103.841615456446,1,2016.0,180.0,1163.0,2684400.0
marina bay residences,marina boulevard,condominium,2.0,2.0,1,central region,downtown core,central subzone,1.279625798918,103.854987203774,0,2010.0,428.0,1066.0,2640000.0
normanton park,normanton park,apartment,3.0,2.0,5,central region,queenstown,kent ridge,1.28749505390492,103.793610594541,0,1930.0,1862.0,947.0,1783100.0
jool suites,2 sing joo walk ,apartment,1.0,1.0,8,central region,kallang,kampong java,1.31520905789978,103.854919307157,1,2013.0,52.0,388.0,770000.0
jadescape,shunfu road,condominium,3.0,2.0,20,central region,bishan,upper thomson,1.35176163249001,103.839046663239,0,2015.0,1206.0,1055.0,2178000.0
tiong bahru estate,guan chuan street,walk-up apt,2.0,1.0,3,central region,bukit merah,tiong bahru,1.28303695135392,103.831778176417,0,1937.0,11.0,1237.0,1815000.0
the makena,meyer road,condominium,2.0,3.0,15,central region,marine parade,mountbatten,1.2976926630287,103.89444607007,1,1998.0,504.0,926.0,1925000.0
twin vew,91 west coast vale ,apartment,1.0,1.0,5,west region,clementi,west coast,1.32004938238057,103.75216125907,0,2021.0,520.0,570.0,1083500.0
livia,pasir ris grove,condominium,2.0,2.0,18,east region,pasir ris,pasir ris central,1.37305703366527,103.942459094386,0,2011.0,724.0,915.0,1017500.0
cyan,keng chin road,condominium,3.0,4.0,10,central region,tanglin,nassim,1.31826157961172,103.830352987178,1,2014.0,278.0,2949.0,10245400.0
la fleur,8 lorong 26 geylang ,apartment,1.0,1.0,14,central region,geylang,aljunied,1.3124448127701,103.884576575133,1,2014.0,58.0,721.0,968000.0
the crest,prince charles crescent,condominium,2.0,4.0,3,central region,bukit merah,alexandra north,1.29269478978815,103.820411467009,0,2017.0,469.0,1701.0,3747700.0
kovan regency,kovan rise,condominium,5.0,4.0,19,north-east region,hougang,kovan,1.3630484556857,103.885752438839,0,2015.0,393.0,3700.0,4180000.0
